     3.01           OBSERVATION DATA    M: Mixed            RINEX VERSION / TYPE
RTKCONV 2.4.2                           20170629 133310 UTC PGM / RUN BY / DATE 
log: F:\Research\Utilities\ParseUBX\ParseUBX\6t-ds4-final-  COMMENT             
format: u-blox                                              COMMENT             
                                                            MARKER NAME         
                                                            MARKER NUMBER       
                                                            MARKER TYPE         
                                                            OBSERVER / AGENCY   
                                                            REC # / TYPE / VERS 
                                                            ANT # / TYPE        
  -741992.8259 -5462235.9354  3198023.8463                  APPROX POSITION XYZ 
        0.0000        0.0000        0.0000                  ANTENNA: DELTA H/E/N
G    4 C1C L1C D1C S1C                                      SYS / # / OBS TYPES 
S    4 C1C L1C D1C S1C                                      SYS / # / OBS TYPES 
  1980     1    11    12    44   50.0000000     GPS         TIME OF FIRST OBS   
  2012     9    14    12    52   21.9990000     GPS         TIME OF LAST OBS    
G                                                           SYS / PHASE SHIFT   
S                                                           SYS / PHASE SHIFT   
                                                            END OF HEADER       
> 1980  1 11 12 44 50.0000000  0  5                     
G 3  19816109.675        1420.5292        485.001          45.000  
G 6  20739823.288        8480.2752       -805.122          42.000  
G 7  21519239.218       -5992.2262       1561.268          42.000  
G13  19563441.778       -6627.4952       1550.961          45.000  
G16  20912779.655       22177.7992      -3090.880          43.000  
> 1980  1 11 12 44 51.0000000  0  5                     
G 3  19816017.503         935.8282        484.123          45.000  
G 6  20739975.611        9285.1112       -805.141          42.000  
G 7  21518942.372       -7554.0182       1561.620          42.000  
G13  19563147.218       -8178.1412       1550.706          45.000  
G16  20913367.466       25268.6742      -3091.226          43.000  
> 1980  1 11 12 44 52.0000000  0  6                     
G 3  19815925.227         451.4692        483.567          45.000  
G 6  20740129.173       10090.2532       -806.102          42.000  
G 7  21518645.247       -9116.1112       1562.390          42.000  
G23  18929061.099       33408.3782       -719.184          45.000  
G13  19562852.501       -9728.6472       1549.782          45.000  
G16  20913955.835       28359.4392      -3091.439          43.000  
> 1980  1 11 12 44 53.0000000  0  7                     
G 3  19815832.758         -32.4032        483.160          44.000  
G19  21017986.878      -16967.3282       2328.347          42.000  
G 6  20740282.560       10895.8232       -806.077          42.000  
G 7  21518348.227      -10678.3742       1561.542          42.000  
G23  18929197.403       34126.9752       -719.163          45.000  
G13  19562557.610      -11278.9082       1550.037          45.000  
G16  20914544.413       31450.2092      -3091.699          43.000  
> 1980  1 11 12 44 54.0000000  0  7                     
G 3  19815740.603        -515.6422        484.148          44.000  
G19  21017543.730      -19295.3742       2328.389          42.000  
G 6  20740435.982       11701.9902       -805.806          42.000  
G 7  21518050.753      -12240.6332       1562.311          42.000  
G23  18929334.335       34846.1382       -718.447          45.000  
G13  19562262.353      -12828.7782       1550.397          45.000  
G16  20915132.084       34541.1792      -3090.359          43.000  
> 1980  1 11 12 44 55.0000000  0  8                     
G 3  19815648.239        -998.1982        480.997          44.000  
G19  21017100.739      -21623.0352       2326.632          42.000  
G30  23117738.546       27911.7252      -3615.667          35.000  
G 6  20740589.544       12508.7952       -807.613          42.000  
G 7  21517752.843      -13802.8522       1562.053          42.000  
G23  18929470.621       35565.9402       -720.319          45.000  
G13  19561967.514      -14378.1802       1548.439          45.000  
G16  20915720.628       37632.3782      -3091.851          43.000  
> 1980  1 11 12 44 56.0000000  0 10                     
G 3  19815556.783       -1479.5382        480.357          44.000  
G 8  24525245.659      -19091.6013       1852.134          31.000  
G19  21016658.638      -23949.7942       2325.510          42.000  
G30  23118427.358       31526.8912      -3616.558          35.000  
G 6  20740743.333       13316.7692       -808.600          42.000  
G 7  21517456.381      -15364.5072       1561.067          42.000  
G23  18929607.396       36286.8732       -722.236          45.000  
G10  22761887.197      -30590.9082        345.615          38.000  
G13  19561672.640      -15926.6052       1547.226          45.000  
G16  20916308.857       40724.3162      -3092.874          43.000  
> 1980  1 11 12 44 57.0000000  0 10                     
G 3  19815464.942       -1960.2682        481.473          44.000  
G 8  24524894.037      -20945.0213       1854.750          30.000  
G19  21016215.577      -26276.2312       2327.847          42.000  
G30  23119114.914       35142.0162      -3613.731          35.000  
G 6  20740897.611       14125.2772       -807.908          42.000  
G 7  21517158.314      -16926.2092       1563.274          42.000  
G23  18929745.165       37008.3592       -720.453          45.000  
G10  22761823.905      -30937.7962        347.625          38.000  
G13  19561378.080      -17474.6632       1549.036          45.000  
G16  20916897.767       43816.3922      -3091.169          43.000  
> 1980  1 11 12 44 58.0000000  0 10                     
G 3  19815373.608       -2440.5052        481.264          44.000  
G 8  24524541.020      -22798.7993       1854.748          30.000  
G19  21015773.039      -28602.4662       2327.343          43.000  
G30  23119803.238       38756.8972      -3614.153          35.000  
G 6  20741051.364       14934.2482       -808.345          42.000  
G 7  21516860.893      -18488.0492       1562.519          42.000  
G23  18929882.132       37730.2892       -720.902          45.000  
G10  22761755.186      -31284.2662        346.908          37.000  
G13  19561083.433      -19022.4312       1548.983          45.000  
G16  20917486.276       46908.5212      -3090.444          43.000  
> 1980  1 11 12 44 59.0000000  0 12                     
G 3  19815282.483       -2920.1662        481.092          44.000  
G 8  24524189.206      -24652.7453       1853.990          30.000  
G19  21015330.030      -30928.4282       2328.141          42.000  
G30  23120491.387       42371.7162      -3612.212          35.000  
G 6  20741205.171       15743.7662       -808.487          42.000  
G 7  21516564.082      -20049.9552       1563.088          42.000  
G23  18930019.587       38452.7132       -721.283          45.000  
G10  22761688.718      -31630.2842        346.498          38.000  
S33  35514843.599       15690.6032       -300.478          42.000  
G13  19560789.502      -20569.8692       1548.713          45.000  
S35  36837889.599        2864.2472       -289.700          43.000  
G16  20918074.714       50000.7402      -3091.243          43.000  
> 1980  1 11 12 45  0.0000000  0 12                     
G 3  19815190.799       -3399.1112        477.940          44.000  
G 8  24523833.867      -26506.5813       1852.528          30.000  
G19  21014887.685      -33253.9962       2325.258          42.000  
G30  23121178.821       45986.5822      -3614.799          35.000  
G 6  20741359.134       16553.9622       -811.171          42.000  
G 7  21516266.573      -21611.7932       1561.992          42.000  
G23  18930157.461       39175.8122       -723.753          45.000  
G10  22761622.773      -31975.6952        345.164          37.000  
S33  35514900.591       15992.8212       -302.584          42.000  
G13  19560494.925      -22116.8032       1546.137          45.000  
S35  36837945.108        3155.7252       -292.180          43.000  
G16  20918663.397       53093.2452      -3093.141          43.000  
> 1980  1 11 12 45  1.0000000  0 12                     
G 3  19815099.727       -3877.6562        477.843          44.000  
G 8  24523481.966      -28360.7812       1852.008          30.000  
G19  21014445.182      -35579.4812       2325.503          42.000  
G30  23121867.075       49601.0982      -3616.060          35.000  
G 6  20741513.725       17364.4832       -811.393          42.000  
G 7  21515969.361      -23173.8962       1561.465          42.000  
G23  18930295.161       39899.2232       -723.882          46.000  
G10  22761557.056      -32320.7982        344.490          37.000  
S33  35514958.072       16294.8412       -302.456          42.000  
G13  19560200.836      -23663.5852       1546.546          45.000  
S35  36838000.722        3446.9722       -291.272          43.000  
G16  20919251.836       56185.6702      -3092.874          43.000  
> 2012  9 14 12 45  2.0000000  0 12                     
G 3  19815008.392       -4356.1892        477.523          44.000  
G 8  24523130.658      -30215.7353       1853.765          30.000  
G19  21014002.261      -37905.2342       2324.802          42.000  
G30  23122555.190       53215.0262      -3614.506          35.000  
G 6  20741668.055       18174.9882       -811.919          42.000  
G 7  21515671.887      -24736.6242       1561.931          42.000  
G23  18930432.529       40622.5832       -724.214          46.000  
G10  22761490.693      -32666.0052        343.804          37.000  
S33  35515015.064       16596.1712       -302.321          42.000  
G13  19559906.346      -25210.5882       1545.513          45.000  
S35  36838056.231        3737.6182       -291.455          43.000  
G16  20919839.891       59277.6462      -3093.033          43.000  
> 2012  9 14 12 45  3.0000000  0 12                     
G 3  19814917.686       -4834.4682        477.781          44.000  
G 8  24522778.007      -32071.1953       1853.645          30.000  
G19  21013559.741      -40231.0482       2324.952          42.000  
G30  23123242.868       56828.5022      -3612.795          35.000  
G 6  20741821.966       18985.6952       -811.784          42.000  
G 7  21515374.169      -26299.7252       1562.582          42.000  
G23  18930570.142       41346.1282       -724.821          46.000  
G10  22761424.940      -33011.0352        344.697          37.000  
S33  35515072.179       16897.0802       -300.736          42.000  
G13  19559611.595      -26757.5452       1546.395          45.000  
S35  36838110.868        4027.8212       -290.836          43.000  
G16  20920428.051       62369.4222      -3092.278          43.000  
> 2012  9 14 12 45  4.0000000  0 12                     
G 3  19814826.264       -5311.8792        477.216          44.000  
G 8  24522421.028      -33926.4153       1854.336          30.000  
G19  21013117.447      -42556.3092       2324.590          42.000  
G30  23123929.743       60442.1442      -3614.288          36.000  
G 6  20741976.453       19797.2162       -812.139          42.000  
G 7  21515076.608      -27862.6132       1563.072          42.000  
G23  18930708.190       42070.4922       -725.016          46.000  
G10  22761359.746      -33355.3502        343.264          37.000  
S33  35515129.520       17198.2102       -301.633          42.000  
G13  19559317.140      -28303.8682       1545.752          45.000  
S35  36838165.958        4318.1902       -290.820          43.000  
G16  20921016.891       65461.6032      -3092.697          43.000  
> 2012  9 14 12 45  5.0000000  0 12                     
G 3  19814735.872       -5789.0522        475.944          44.000  
G 8  24522071.081      -35782.1833       1852.940          30.000  
G19  21012674.875      -44881.5992       2324.951          42.000  
G30  23124617.125       64055.3762      -3613.314          36.000  
G 6  20742130.782       20608.9712       -811.800          42.000  
G 7  21514778.942      -29425.8992       1562.842          42.000  
G23  18930845.785       42795.0262       -725.099          46.000  
G10  22761294.064      -33699.4752        343.835          37.000  
S33  35515186.705       17499.1232       -301.245          42.000  
G13  19559022.964      -29850.1792       1546.174          45.000  
S35  36838221.467        4608.0762       -290.043          43.000  
G16  20921605.207       68553.5702      -3092.095          43.000  
> 2012  9 14 12 45  6.0000000  0 12                     
G 3  19814644.834       -6266.0252        476.224          44.000  
G 8  24521718.272      -37638.4903       1854.103          30.000  
G19  21012231.796      -47207.0322       2324.743          42.000  
G30  23125304.698       67668.1002      -3612.229          36.000  
G 6  20742285.461       21420.8652       -812.623          42.000  
G 7  21514481.014      -30989.6122       1564.048          42.000  
G23  18930984.166       43519.6892       -725.232          46.000  
G10  22761227.927      -34043.5682        343.877          37.000  
S33  35515244.151       17799.6232       -300.666          42.000  
G13  19558728.526      -31396.5132       1545.711          45.000  
S35  36838276.732        4897.4272       -290.185          43.000  
G16  20922193.629       71645.2652      -3092.299          44.000  
> 2012  9 14 12 45  7.0000000  0 12                     
G 3  19814554.634       -6743.465         475.988          44.000  
G 8  24521364.574      -39495.4682       1852.637          30.000  
G19  21011789.067      -49532.722        2324.686          42.000  
G 6  20742439.826       22232.715        -812.914          42.000  
G 7  21514183.000      -32553.972        1564.167          42.000  
G23  18931122.493       44244.325        -725.370          46.000  
G30  23125991.818       71279.709       -3612.008          36.000  
G10  22761162.053      -34387.7082        343.013          37.000  
S33  35515300.742       18099.3462       -300.404          42.000  
G13  19558433.879      -32943.068        1545.749          45.000  
S35  36838331.072        5186.1022       -289.203          43.000  
G16  20922782.050       74736.021       -3092.011          44.000  
> 2012  9 14 12 45  8.0000000  0 13                     
G 3  19814463.771       -7219.713         476.138          44.000  
G 8  24521010.596      -41352.4702       1856.682          30.000  
G19  21011346.495      -51858.006        2325.439          42.000  
G 6  20742594.539       23045.252        -812.331          42.000  
G 7  21513885.369      -34118.249        1564.372          42.000  
G23  18931260.088       44969.596        -725.463          46.000  
G30  23126678.973       74891.804       -3612.476          36.000  
G10  22761096.684      -34731.2382        343.274          36.000  
S33  35515358.223       18399.1352       -300.172          42.000  
G13  19558140.332      -34489.129        1545.689          45.000  
S35  36838386.285        5474.8262       -288.624          43.000  
G11  24865194.817       -2671.5173       1628.891          29.000  
G16  20923370.157       77827.530       -3091.574          44.000  
> 2012  9 14 12 45  9.0000000  0 13                     
G 3  19814373.396       -7695.613         475.348          44.000  
G 8  24520657.648      -43209.8623       1857.127          30.000  
G19  21010903.870      -54183.273        2325.471          42.000  
G 6  20742749.026       23858.071        -813.763          42.000  
G 7  21513587.389      -35682.869        1564.630          42.000  
G23  18931398.416       45695.123        -726.386          46.000  
G30  23127366.372       78503.537       -3612.039          36.000  
G10  22761031.106      -35074.5463        341.650          36.000  
S33  35515415.582       18698.5572       -298.744          42.000  
G13  19557845.929      -36035.081        1545.600          45.000  
S35  36838441.183        5763.1292       -287.838          43.000  
G11  24864882.912       -4300.8653       1628.806          29.000  
G16  20923958.840       80918.895       -3091.635          44.000  
> 2012  9 14 12 45 10.0000000  0 13                     
G 3  19814282.917       -8171.191         473.925          44.000  
G 8  24520304.403      -45067.6632       1856.799          30.000  
G19  21010461.263      -56508.521        2323.608          42.000  
G 6  20742903.251       24671.157        -815.098          42.000  
G 7  21513289.496      -37247.791        1562.854          42.000  
G23  18931536.430       46420.941        -727.340          46.000  
G30  23128053.387       82114.949       -3611.672          36.000  
G10  22760965.528      -35417.6272        341.928          36.000  
S33  35515472.016       18997.5032       -300.700          42.000  
G13  19557552.033      -37580.933        1543.692          45.000  
S35  36838495.628        6051.0622       -289.170          43.000  
G11  24864573.205       -5930.7733       1630.178          29.000  
G16  20924547.681       84010.123       -3092.939          44.000  
> 2012  9 14 12 45 11.0000000  0 13                     
G 3  19814192.158       -8645.815         475.300          44.000  
G 8  24519950.373      -46925.2252       1859.291          30.000  
G19  21010018.742      -58833.094        2325.844          42.000  
G 6  20743058.262       25485.143        -813.681          42.000  
G 7  21512991.691      -38812.402        1565.670          42.000  
G23  18931674.008       47147.634        -725.798          46.000  
G30  23128741.082       85726.608       -3609.524          36.000  
G10  22760900.003      -35759.8832        342.103          36.000  
S33  35515528.851       19296.8042       -298.557          42.000  
G13  19557257.578      -39126.045        1545.977          45.000  
S35  36838550.788        6339.2302       -287.198          43.000  
G11  24864261.283       -7560.7123       1631.525          29.000  
G16  20925135.456       87101.861       -3090.639          44.000  
> 2012  9 14 12 45 12.0000000  0 13                     
G 3  19814101.749       -9120.256         473.672          44.000  
G 8  24519596.500      -48783.3323       1857.182          30.000  
G19  21009576.694      -61157.798        2323.944          42.000  
G 6  20743212.853       26299.307        -814.931          42.000  
G 7  21512693.344      -40377.472        1564.613          42.000  
G23  18931812.248       47874.469        -727.521          46.000  
G30  23129428.150       89337.821       -3611.025          36.000  
G10  22760834.268      -36102.0272        342.136          36.000  
S33  35515585.146       19595.8272       -299.917          42.000  
G13  19556963.489      -40671.212        1544.528          45.000  
S35  36838605.547        6626.9392       -288.060          43.000  
G11  24863952.204       -9191.5993       1631.152          29.000  
G16  20925723.598       90193.317       -3091.891          44.000  
> 2012  9 14 12 45 12.9950000  0 13                     
G 3  19814011.880       -9591.786         475.302          44.000  
G 8  24519244.913      -50632.3623       1858.840          31.000  
G19  21009136.547      -63470.647        2326.243          42.000  
G 6  20743367.061       27109.861        -813.178          42.000  
G 7  21512396.830      -41934.820        1566.334          42.000  
G23  18931949.826       48598.117        -725.913          46.000  
G30  23130111.919       92930.765       -3609.593          36.000  
G10  22760769.877      -36442.0162        343.600          36.000  
S33  35515641.754       19893.1152       -297.122          42.000  
G13  19556670.762      -42208.349        1546.338          45.000  
S35  36838660.131        6913.1352       -285.797          43.000  
G11  24863643.981      -10814.7253       1631.711          29.000  
G16  20926308.861       93269.394       -3089.640          44.000  
> 2012  9 14 12 45 13.9950000  0 14                     
G 3  19813921.523      -10065.347         473.021          44.000  
G 8  24518890.622      -52490.9493       1860.613          30.000  
G19  21008693.765      -65795.050        2324.778          42.000  
G20  22739480.611       37970.2092      -3255.410          35.000  
G 6  20743521.582       27924.802        -815.183          42.000  
G 7  21512098.780      -43500.275        1565.781          42.000  
G23  18932088.223       49325.709        -728.254          45.000  
G30  23130799.161       96541.473       -3610.581          36.000  
G10  22760705.154      -36783.5002        340.852          36.000  
S33  35515698.240       20191.4702       -297.922          42.000  
G13  19556376.586      -43753.068        1544.459          45.000  
S35  36838714.733        7200.4602       -287.776          43.000  
G11  24863332.722      -12446.7213       1632.094          30.000  
G16  20926897.510       96360.820       -3091.413          44.000  
> 2012  9 14 12 45 14.9950000  0 14                     
G 3  19813831.514      -10539.336         472.979          44.000  
G 8  24518536.749      -54350.8613       1860.906          30.000  
G19  21008251.472      -68120.207        2324.304          42.000  
G20  22740099.954       41224.9402      -3256.185          35.000  
G 6  20743676.819       28739.253        -815.645          42.000  
G 7  21511801.167      -45066.822        1565.868          42.000  
G23  18932226.586       50052.783        -728.188          45.000  
G30  23131486.089      100151.084       -3609.858          36.000  
G10  22760640.379      -37125.5282        341.305          36.000  
S33  35515754.395       20488.5802       -297.421          42.000  
G13  19556082.375      -45298.461        1544.580          45.000  
S35  36838768.479        7486.6982       -286.806          43.000  
G11  24863023.800      -14080.1443       1632.889          30.000  
G16  20927485.704       99451.377       -3090.890          44.000  
> 2012  9 14 12 45 15.9950000  0 14                     
G 3  19813741.419      -11012.630         472.081          44.000  
G 8  24518182.893      -56210.7883       1860.066          30.000  
G19  21007809.021      -70444.988        2323.411          42.000  
G20  22740718.896       44479.6422      -3255.910          35.000  
G 6  20743832.231       29554.351        -816.516          42.000  
G 7  21511502.978      -46633.343        1565.396          42.000  
G23  18932364.687       50780.468        -729.349          45.000  
G30  23132172.668      103761.1513      -3610.055          36.000  
G10  22760575.219      -37466.9622        340.687          37.000  
S33  35515811.440       20785.5672       -298.329          42.000  
G13  19555788.688      -46843.403        1543.824          45.000  
S35  36838822.802        7772.9072       -287.411          43.000  
G11  24862710.988      -15713.9253       1633.170          30.000  
G16  20928073.759      102542.128       -3091.965          44.000  
> 2012  9 14 12 45 16.9950000  0 14                     
G 3  19813651.585      -11484.860         471.725          44.000  
G 8  24517828.898      -58070.2632       1861.095          30.000  
G19  21007366.501      -72768.983        2323.803          42.000  
G20  22741337.907       47734.7693      -3255.047          36.000  
G 6  20743987.451       30370.484        -816.572          42.000  
G 7  21511204.439      -48199.422        1565.248          42.000  
G23  18932503.067       51509.192        -728.839          45.000  
G10  22760510.322      -37807.4482        340.347          36.000  
S33  35515868.415       21082.9422       -297.307          42.000  
G30  23132860.294      107371.1282      -3610.252          36.000  
G13  19555494.390      -48387.476        1543.971          45.000  
S35  36838876.793        8059.5832       -287.674          43.000  
G11  24862400.199      -17347.5123       1634.588          30.000  
G16  20928661.831      105633.510       -3091.794          44.000  
> 2012  9 14 12 45 17.9950000  0 14                     
G 3  19813561.647      -11956.667         470.988          44.000  
G 8  24517475.182      -59930.1643       1858.701          30.000  
G19  21006925.011      -75092.866        2322.990          42.000  
G20  22741957.163       50989.6362      -3256.416          36.000  
G 6  20744143.403       31187.005        -817.660          42.000  
G 7  21510906.058      -49765.712        1566.102          42.000  
G23  18932641.814       52238.263        -729.291          45.000  
G10  22760445.704      -38147.5952        338.665          36.000  
S33  35515924.482       21379.9592       -297.197          42.000  
G30  23133547.239      110980.8522      -3609.863          36.000  
G13  19555200.459      -49931.373        1543.450          45.000  
S35  36838931.814        8346.0792       -285.911          43.000  
G11  24862094.175      -18981.7813       1633.530          31.000  
G16  20929250.636      108724.857       -3091.634          44.000  
> 2012  9 14 12 45 18.9980000  0 14                     
G 3  20712848.637      -12428.631         471.512          44.000  
G 8  25416497.941      -61790.8422       1861.556          30.000  
G19  21905860.012      -77417.216        2323.817          42.000  
G20  23641953.888       54243.6683      -3255.028          35.000  
G 6  21643675.900       32003.304        -816.776          42.000  
G 7  22409985.408      -51332.823        1566.790          42.000  
G23  19832157.786       52967.111        -729.350          45.000  
G10  23659758.764      -38488.002         339.779          36.000  
S33  36415358.543       21676.2602       -296.809          42.000  
G30  24033610.711      114589.7012      -3608.152          36.000  
G13  20454283.996      -51475.656        1543.750          45.000  
S35  37738363.745        8631.7252       -285.679          43.000  
G11  25761160.751      -20617.2473       1637.522          30.000  
G16  21829215.934      111815.570       -3091.116          44.000  
> 2012  9 14 12 45 19.9990000  0 14                     
G 3  20712759.396      -12900.546         470.442          44.000  
G 8  25416143.178      -63653.6593       1861.388          30.000  
G19  21905417.667      -79743.659        2323.189          42.000  
G20  23642573.493       57500.7553      -3254.952          36.000  
G 6  21643831.766       32820.886        -818.007          42.000  
G 7  22409686.782      -52901.608        1567.245          42.000  
G23  19832297.038       53697.133        -730.091          45.000  
G10  23659694.198      -38828.373         339.092          36.000  
S33  36415415.046       21972.8412       -296.463          42.000  
G30  24034297.988      118202.0022      -3608.995          36.000  
G13  20453989.192      -53021.182        1543.815          45.000  
S35  37738418.329        8917.5092       -285.926          43.000  
G11  25760846.368      -22254.7833       1638.739          30.000  
G16  21829804.093      114909.419       -3091.469          44.000  
> 2012  9 14 12 45 20.9990000  0 14                     
G 3  20712669.475      -13371.535         470.830          44.000  
G 8  25415788.642      -65514.8392       1860.717          30.000  
G19  21904975.792      -82067.618        2324.131          42.000  
G20  23643192.662       60754.3642      -3252.029          36.000  
G 6  21643986.898       33638.087        -817.501          43.000  
G 7  22409388.575      -54469.034        1567.455          42.000  
G23  19832435.436       54426.839        -730.149          45.000  
G10  23659629.545      -39168.017         339.578          36.000  
S33  36415471.131       22269.1502       -296.730          42.000  
G30  24034984.584      121810.4843      -3608.024          36.000  
G13  20453695.174      -54564.940        1543.528          45.000  
S35  37738472.477        9202.7072       -285.535          43.000  
G11  25760531.583      -23891.3113       1637.557          29.000  
G16  21830392.375      118000.179       -3091.187          44.000  
> 2012  9 14 12 45 21.9990000  0 14                     
G 3  20712580.078      -13841.929         469.898          44.000  
G 8  25415434.420      -67376.1802       1859.638          30.000  
G19  21904533.621      -84391.301        2323.428          42.000  
G20  23643812.005       64007.8932      -3254.070          36.000  
G 6  21644143.322       34455.804        -818.283          42.000  
G 7  22409090.543      -56036.494        1566.482          42.000  
G23  19832574.636       55157.061        -730.920          45.000  
G10  23659564.665      -39507.190         338.726          36.000  
S33  36415527.077       22565.2522       -295.977          42.000  
G30  24035671.721      125418.8733      -3608.335          36.000  
G13  20453401.347      -56108.332        1542.531          45.000  
S35  37738526.189        9487.8342       -285.738          43.000  
G11  25760222.505      -25528.2233       1633.313          29.000  
G16  21830980.604      121091.066       -3091.827          44.000  
> 2012  9 14 12 45 22.9990000  0 14                     
G 3  20712489.808      -14311.979         469.184          44.000  
G 8  25415080.634      -69237.8892       1863.754          31.000  
G19  21904091.310      -86714.953        2322.891          42.000  
G20  23644430.318       67261.1163      -3251.596          36.000  
G 6  21644298.489       35273.839        -818.522          43.000  
G 7  22408792.563      -57604.269        1567.614          42.000  
G23  19832713.453       55887.549        -731.733          45.000  
G10  23659500.414      -39846.105         337.952          36.000  
S33  36415583.319       22860.8952       -296.402          42.000  
G30  24036357.951      129026.9292      -3607.959          36.000  
G13  20453107.677      -57651.604        1542.279          45.000  
S35  37738580.040        9772.7562       -285.704          43.000  
G11  25759907.564      -27165.8283       1638.729          29.000  
G16  21831568.729      124181.838       -3091.532          44.000  
> 2012  9 14 12 45 23.9990000  0 14                     
G 3  20712400.655      -14781.385         470.036          44.000  
G 8  25414726.901      -71099.6682       1861.273          31.000  
G19  21903648.372      -89038.251        2324.751          42.000  
G20  23645049.801       70514.2302      -3250.499          36.000  
G 6  21644453.813       36092.450        -818.248          42.000  
G 7  22408493.536      -59172.041        1569.273          42.000  
G23  19832852.287       56618.646        -730.039          45.000  
G10  23659435.394      -40184.514         338.662          36.000  
S33  36415639.683       23156.5262       -294.263          42.000  
G30  24037044.373      132634.9152      -3607.675          36.000  
G13  20452813.606      -59194.451        1544.097          45.000  
S35  37738633.944       10057.6142       -283.884          43.000  
G11  25759595.990      -28803.7473       1643.022          29.000  
G16  21832156.278      127272.783       -3090.041          44.000  
> 2012  9 14 12 45 24.9990000  0 14                     
G 3  20712311.048      -15250.384         468.123          44.000  
G 8  25414373.202      -72961.8012       1861.410          31.000  
G19  21903206.480      -91361.429        2322.618          42.000  
G20  23645667.574       73767.0532      -3254.107          36.000  
G 6  21644609.975       36911.439        -820.068          42.000  
G 7  22408195.713      -60740.084        1566.507          42.000  
G23  19832991.871       57350.072        -732.786          45.000  
G10  23659370.741      -40522.599         338.685          36.000  
S33  36415696.484       23451.9132       -296.367          42.000  
G30  24037730.777      136242.6702      -3609.382          36.000  
G13  20452520.233      -60737.123        1542.097          45.000  
S35  37738688.109       10342.1842       -284.633          43.000  
G11  25759284.189      -30442.4033       1637.287          30.000  
G16  21832744.001      130363.676       -3091.469          44.000  
> 2012  9 14 12 45 25.9990000  0 15                     
G 3  20712221.895      -15718.636         467.692          44.000  
G 8  25414018.387      -74823.8912       1861.968          31.000  
G19  21902764.291      -93684.191        2322.576          42.000  
S38  36685629.225       64553.7672       -280.828          45.000  
G20  23646286.673       77019.9672      -3253.795          36.000  
G 6  21644765.719       37731.133        -819.878          42.000  
G 7  22407897.489      -62307.994        1567.486          42.000  
G23  19833131.106       58082.161        -732.338          45.000  
G10  23659306.455      -40860.050         336.926          36.000  
S33  36415752.464       23747.5062       -295.410          42.000  
G30  24038417.496      139850.4512      -3608.419          36.000  
G13  20452226.965      -62279.303        1541.558          45.000  
S35  37738742.467       10626.8522       -284.452          43.000  
G11  25758972.354      -32081.1713       1641.325          30.000  
G16  21833331.934      133454.822       -3091.124          44.000  
> 2012  9 14 12 45 26.9990000  0 15                     
G 3  20712133.160      -16186.304         469.374          44.000  
G 8  25413663.990      -76686.1452       1863.777          31.000  
G19  21902322.417      -96006.653        2323.708          42.000  
S38  36685682.535       64834.0992       -278.450          45.000  
G20  23646906.155       80272.8092      -3250.408          35.000  
G 6  21644921.566       38551.385        -818.721          42.000  
G 7  22407598.759      -63875.949        1569.586          42.000  
G23  19833270.062       58814.803        -730.992          45.000  
G10  23659242.063      -41197.039         337.874          36.000  
S33  36415808.549       24043.1162       -293.555          42.000  
G30  24039103.847      143458.1312      -3606.010          36.000  
G13  20451933.836      -63821.092        1542.866          45.000  
S35  37738796.301       10911.4202       -283.234          43.000  
G11  25758660.449      -33720.5163       1642.713          30.000  
G16  21833920.181      136546.124       -3089.627          44.000  
> 2012  9 14 12 45 27.9990000  0 15                     
G 3  20712043.623      -16653.558         466.651          44.000  
G 8  25413309.542      -78548.7073       1861.758          31.000  
G19  21901880.228      -98328.991        2321.639          42.000  
S38  36685735.375       65114.0382       -280.203          45.000  
G20  23647525.289       83525.3412      -3252.168          35.000  
G 6  21645077.502       39371.966        -821.302          42.000  
G 7  22407300.063      -65444.160        1567.769          42.000  
G23  19833409.577       59547.761        -733.724          45.000  
G10  23659177.044      -41533.717         334.444          36.000  
S33  36415865.000       24338.4132       -295.813          42.000  
G30  24039790.165      147065.5922      -3608.006          36.000  
G13  20451640.149      -65362.685        1540.489          45.000  
S35  37738850.030       11195.5842       -284.857          43.000  
G11  25758348.073      -35360.3543       1638.102          30.000  
G16  21834507.834      139637.352       -3092.654          44.000  
> 2012  9 14 12 45 28.9990000  0 15                     
G 3  20711955.185      -17120.427         466.026          44.000  
G 8  25412953.976      -80411.6173       1861.924          31.000  
G19  21901437.935     -100651.227        2322.054          42.000  
S38  36685788.755       65393.6192       -280.242          45.000  
G20  23648143.254       86777.6252      -3253.074          35.000  
G 6  21645233.594       40192.917        -821.865          42.000  
G 7  22407001.560      -67012.604        1567.839          42.000  
G23  19833549.388       60281.068        -734.238          46.000  
G10  23659112.897      -41870.0713        335.917          35.000  
S33  36415920.579       24633.3802       -296.007          42.000  
G30  24040476.237      150672.7462      -3607.022          36.000  
G13  20451347.195      -66904.107        1540.261          45.000  
S35  37738905.033       11479.3572       -284.715          43.000  
G11  25758035.783      -37000.8882       1639.691          31.000  
G16  21835095.558      142728.531       -3092.535          44.000  
> 2012  9 14 12 45 29.9990000  0 15                     
G 3  20711866.294      -17586.278         465.270          44.000  
G 8  25412600.120      -82274.2582       1862.143          31.000  
G19  21900996.357     -102972.802        2321.185          42.000  
S38  36685841.978       65673.5812       -279.967          45.000  
G20  23648762.457       90030.1422      -3253.461          35.000  
G 6  21645389.983       41014.794        -822.479          42.000  
G 7  22406703.039      -68580.714        1568.272          42.000  
G23  19833689.112       61015.301        -734.830          46.000  
G10  23659049.186      -42205.5432        334.037          35.000  
S33  36415976.280       24928.5982       -295.085          42.000  
G30  24041162.589      154280.1582      -3606.728          36.000  
G13  20451053.821      -68444.771        1540.268          45.000  
S35  37738958.588       11763.4252       -284.237          43.000  
G11  25757723.826      -38641.4193       1641.049          32.000  
G16  21835684.014      145820.239       -3092.434          43.000  
> 2012  9 14 12 45 30.9990000  0 15                     
G 3  20711777.682      -18051.650         464.630          44.000  
G 8  25412245.200      -84137.0893       1864.097          31.000  
G19  21900554.657     -105294.160        2321.124          42.000  
S38  36685895.568       65953.3212       -279.832          45.000  
G20  23649381.713       93282.036       -3251.653          35.000  
G 6  21645546.197       41837.144        -822.909          42.000  
G 7  22406404.466      -70148.957        1568.606          42.000  
G23  19833829.045       61749.956        -734.981          46.000  
G10  23658985.475      -42540.6482        334.560          35.000  
S33  36416032.627       25223.6512       -295.180          42.000  
G30  24041848.034      157886.932       -3607.814          36.000  
G13  20450760.483      -69985.168        1540.041          45.000  
S35  37739013.591       12047.3552       -283.741          43.000  
G11  25757411.816      -40282.4423       1640.865          32.000  
G16  21836272.208      148911.981       -3092.068          43.000  
> 2012  9 14 12 45 31.9990000  0 15                     
G 3  20711689.139      -18517.180         464.896          44.000  
G 8  25411890.507      -86000.8503       1864.899          31.000  
G19  21900112.574     -107615.991        2321.765          42.000  
S38  36685948.233       66232.1682       -279.529          45.000  
G20  23649999.870       96534.0863      -3251.372          35.000  
G 6  21645702.254       42659.288        -822.789          42.000  
G 7  22406105.613      -71718.038        1568.061          42.000  
G23  19833968.315       62484.397        -735.097          46.000  
G10  23658921.555      -42876.0202        335.129          35.000  
S33  36416088.468       25517.8722       -294.338          42.000  
G30  24042534.246      161493.8403      -3606.877          36.000  
G13  20450467.180      -71525.955        1540.575          45.000  
S35  37739066.954       12330.4682       -283.573          43.000  
G11  25757098.445      -41924.7173       1642.888          33.000  
G16  21836860.665      152003.090       -3091.294          43.000  
> 2012  9 14 12 45 32.9990000  0 15                     
G 3  20711600.667      -18982.219         463.965          44.000  
G 8  25411535.814      -87864.8143       1864.188          31.000  
G19  21899670.682     -109937.649        2320.710          42.000  
S38  36686001.229       66510.7532       -278.882          45.000  
G20  23650618.497       99785.3832      -3251.834          35.000  
G 6  21645858.556       43481.856        -823.940          42.000  
G 7  22405806.901      -73287.254        1568.562          42.000  
G23  19834108.057       63219.259        -735.814          45.000  
G10  23658857.844      -43211.0012        333.711          35.000  
S33  36416144.186       25811.7952       -294.276          42.000  
G30  24043220.179      165100.0442      -3607.779          36.000  
G13  20450173.702      -73066.476        1539.852          45.000  
S35  37739120.578       12613.3782       -283.662          43.000  
G11  25756786.034      -43567.4503       1643.133          33.000  
G16  21837448.458      155094.219       -3091.428          43.000  
> 2012  9 14 12 45 33.9990000  0 15                     
G 3  20711512.438      -19446.085         463.310          44.000  
G 8  25411181.644      -89728.3582       1866.081          31.000  
G19  21899229.435     -112258.407        2320.660          42.000  
S38  36686054.120       66789.6812       -278.715          45.000  
G20  23651237.020      103037.1762      -3252.549          35.000  
G 6  21646014.613       44305.573        -823.534          42.000  
G 7  22405508.537      -74855.934        1568.447          42.000  
G23  19834248.095       63955.246        -736.293          45.000  
G10  23658794.378      -43544.9052        334.263          35.000  
S33  36416199.922       26106.2022       -294.996          42.000  
G30  24043906.409      168706.7402      -3606.384          36.000  
G13  20449880.853      -74606.048        1539.056          45.000  
S35  37739174.639       12896.6932       -283.485          43.000  
G11  25756473.274      -45210.0402       1641.996          33.000  
G16  21838037.088      158186.071       -3091.936          43.000  
> 2012  9 14 12 45 34.9990000  0 15                     
G 3  20711424.629      -19909.364         462.238          44.000  
G 8  25410826.480      -91592.1252       1864.106          31.000  
G19  21898787.962     -114578.919        2319.717          42.000  
S38  36686106.820       67068.3692       -279.460          45.000  
G20  23651856.346      106288.8682      -3253.354          35.000  
G 6  21646171.543       45129.784        -825.146          42.000  
G 7  22405210.173      -76424.692        1567.857          42.000  
G23  19834387.854       64691.725        -737.310          45.000  
G10  23658731.086      -43878.3552        333.635          35.000  
S33  36416255.711       26400.7342       -295.858          42.000  
G30  24044592.552      172313.3262      -3608.240          36.000  
G13  20449587.445      -76145.276        1538.911          45.000  
S35  37739228.909       13179.7732       -283.569          43.000  
G11  25756160.234      -46853.0502       1643.023          34.000  
G16  21838625.335      161278.026       -3092.224          43.000  
> 2012  9 14 12 45 35.9990000  0 15                     
G 3  20711335.999      -20372.424         462.167          44.000  
G 8  25410471.333      -93456.2993       1860.770          31.000  
G19  21898345.844     -116899.488        2319.615          42.000  
S38  36686160.043       67346.7272       -278.815          45.000  
G20  23652475.392      109540.0992      -3252.291          35.000  
G 6  21646328.211       45954.198        -826.086          42.000  
G 7  22404911.774      -77993.885        1567.919          42.000  
G23  19834527.822       65428.383        -737.484          45.000  
G10  23658667.288      -44211.7052        330.816          35.000  
S33  36416311.813       26694.7512       -295.083          42.000  
G30  24045278.659      175919.4682      -3607.045          35.000  
G13  20449294.456      -77684.514        1538.252          45.000  
S35  37739282.342       13462.4252       -283.543          43.000  
G11  25755846.880      -48496.9463       1641.470          34.000  
G16  21839213.792      164369.733       -3092.395          43.000  
> 2012  9 14 12 45 36.9990000  0 15                     
G 3  20711248.015      -20835.212         461.465          44.000  
G 8  25410116.658      -95320.9073       1866.348          31.000  
G19  21897904.231     -119220.100        2319.669          42.000  
S38  36686212.708       67624.7672       -278.657          45.000  
G20  23653094.125      112790.8952      -3251.840          36.000  
G 6  21646485.193       46778.837        -824.845          42.000  
G 7  22404612.765      -79563.442        1568.412          42.000  
G23  19834668.191       66165.247        -737.674          45.000  
G10  23658604.083      -44544.8223        333.155          36.000  
S33  36416367.444       26988.2172       -293.907          42.000  
G30  24045964.453      179525.2182      -3607.302          35.000  
G13  20449001.624      -79223.700        1538.245          45.000  
S35  37739335.478       13744.7762       -282.942          43.000  
G11  25755533.457      -50141.5592       1643.901          35.000  
G16  21839801.532      167461.244       -3092.160          43.000  
> 2012  9 14 12 45 37.9990000  0 16                     
G 3  20711160.101      -21297.241         461.995          44.000  
G 8  25409761.650      -97185.5812       1865.227          31.000  
G19  21897462.077     -121540.258        2319.211          42.000  
S38  36686265.390       67902.9572       -277.553          45.000  
G20  23653712.578      116041.7722      -3252.579          36.000  
G 6  21646641.826       47604.156        -825.849          42.000  
G 7  22404314.523      -81132.904        1568.975          42.000  
G23  19834808.317       66902.787        -737.691          45.000  
G32  24914918.514       77317.8583      -3342.436          32.000  
G10  23658540.634      -44877.3752        333.074          36.000  
S33  36416423.425       27281.7232       -292.605          42.000  
G30  24046650.334      183131.0092      -3604.600          35.000  
G13  20448709.280      -80762.351        1539.075          45.000  
S35  37739389.294       14027.3512       -282.549          43.000  
G11  25755220.400      -51786.3462       1644.813          35.000  
G16  21840389.954      170553.034       -3092.252          43.000  
> 2012  9 14 12 45 38.9990000  0 16                     
G 3  20711072.257      -21758.910         461.073          44.000  
G 8  25409407.533      -99050.5123       1866.435          31.000  
G19  21897021.041     -123860.336        2319.798          42.000  
S38  36686317.898       68180.8552       -278.425          45.000  
G20  23654331.118      119292.3492      -3251.097          36.000  
G 6  21646798.809       48429.819        -826.379          42.000  
G 7  22404015.967      -82702.638        1568.765          42.000  
G23  19834949.070       67640.638        -739.017          45.000  
G32  24915554.680       80658.4792      -3340.851          33.000  
G10  23658477.430      -45209.6482        331.635          36.000  
S33  36416479.213       27574.9592       -293.213          42.000  
G30  24047336.721      186736.4863      -3605.776          35.000  
G13  20448416.186      -82300.874        1538.060          45.000  
S35  37739443.058       14309.5892       -282.877          43.000  
G11  25754907.413      -53431.8572       1645.442          35.000  
G16  21840977.363      173644.736       -3091.974          43.000  
> 2012  9 14 12 45 39.9990000  0 16                     
G 3  20710984.343      -22220.156         461.683          44.000  
G 8  25409052.735     -100915.8402       1865.293          32.000  
G19  21896579.445     -126180.307        2320.330          42.000  
S38  36686370.999       68458.6462       -276.394          45.000  
G20  23654949.798      122542.6212      -3249.152          36.000  
G 6  21646956.314       49255.838        -825.648          42.000  
G 7  22403717.516      -84272.604        1571.422          42.000  
G23  19835089.300       68378.830        -737.251          45.000  
G32  24916192.293       83998.7392      -3339.313          32.000  
G10  23658414.469      -45541.6112        331.343          36.000  
S33  36416534.775       27867.9132       -292.684          42.000  
G30  24048022.671      190341.6512      -3604.727          35.000  
G13  20448122.935      -83839.206        1539.041          45.000  
S35  37739496.630       14591.5662       -281.136          43.000  
G11  25754594.321      -55077.9832       1646.432          35.000  
G16  21841565.959      176736.377       -3091.316          43.000  
> 2012  9 14 12 45 40.9990000  0 16                     
G 3  20710896.673      -22680.803         461.688          44.000  
G 8  25408697.554     -102781.3102       1865.202          32.000  
G19  21896138.496     -128499.977        2320.297          42.000  
S38  36686424.030       68736.3352       -276.519          45.000  
G20  23655568.583      125792.8312      -3248.568          36.000  
G 6  21647113.139       50082.409        -825.321          42.000  
G 7  22403418.315      -85842.598        1570.816          42.000  
G23  19835229.861       69117.572        -737.507          45.000  
G32  24916828.022       87338.8022      -3336.845          32.000  
G10  23658351.317      -45873.0062        333.535          36.000  
S33  36416590.336       28160.8582       -291.499          42.000  
G30  24048708.290      193946.7752      -3604.336          35.000  
G13  20447830.731      -85377.147        1538.812          45.000  
S35  37739550.045       14873.5512       -280.822          43.000  
G11  25754280.078      -56724.4912       1645.515          35.000  
G16  21842153.577      179828.176       -3090.385          43.000  
> 2012  9 14 12 45 41.9990000  0 16                     
G 3  20710808.549      -23141.022         460.959          44.000  
G 8  25408342.459     -104647.0192       1866.760          32.000  
G19  21895696.970     -130819.516        2320.664          42.000  
S38  36686476.957       69013.6372       -275.502          45.000  
G20  23656186.949      129042.7452      -3249.436          36.000  
G 6  21647270.837       50909.366        -826.071          42.000  
G 7  22403119.148      -87412.819        1571.627          42.000  
G23  19835370.371       69856.660        -738.144          45.000  
G32  24917462.843       90678.4262      -3338.045          32.000  
G10  23658288.391      -46204.1582        333.005          36.000  
S33  36416646.386       28453.5052       -291.980          42.000  
G30  24049394.031      197551.6192      -3603.237          35.000  
G13  20447538.039      -86914.907        1538.499          45.000  
S35  37739603.757       15155.3602       -280.616          43.000  
G11  25753966.585      -58371.5702       1648.150          35.000  
G16  21842741.440      182919.918       -3090.779          43.000  
> 2012  9 14 12 45 42.9990000  0 16                     
G 3  20710721.193      -23600.721         459.802          44.000  
G 8  25407987.522     -106512.9432       1866.178          32.000  
G19  21895255.585     -133138.860        2320.149          42.000  
S38  36686529.482       69290.6502       -276.479          45.000  
G20  23656805.245      132291.992       -3249.972          36.000  
G 6  21647428.343       51736.801        -826.815          42.000  
G 7  22402820.366      -88983.182        1571.427          42.000  
G23  19835511.438       70596.190        -739.012          45.000  
G32  24918098.450       94017.7212      -3338.492          33.000  
G10  23658226.356      -46534.8852        331.787          36.000  
S33  36416702.070       28745.9352       -291.292          42.000  
G30  24050079.965      201156.2982      -3604.207          35.000  
G13  20447245.207      -88452.366        1538.078          45.000  
S35  37739657.347       15437.0002       -280.459          43.000  
G11  25753653.318      -60019.144        1649.643          35.000  
G16  21843329.373      186011.722       -3090.777          43.000  
> 2012  9 14 12 45 43.9990000  0 16                     
G 3  20710633.733      -24060.166         459.179          44.000  
G 8  25407632.218     -108379.3572       1866.891          32.000  
G19  21894813.745     -135458.220        2319.510          42.000  
S38  36686581.902       69567.1862       -276.279          45.000  
G20  23657423.506      135541.339       -3249.492          36.000  
G 6  21647585.691       52564.433        -828.366          42.000  
G 7  22402521.426      -90553.918        1570.289          42.000  
G23  19835652.104       71335.935        -740.128          45.000  
G32  24918734.284       97356.5202      -3337.274          32.000  
G10  23658163.483      -46865.4462        329.316          36.000  
S33  36416757.771       29037.9432       -292.027          42.000  
G30  24050764.938      204760.5522      -3603.369          35.000  
G13  20446952.479      -89989.787        1536.909          45.000  
S35  37739710.343       15718.2412       -281.432          43.000  
G11  25753339.302      -61667.531        1647.501          35.000  
G16  21843917.742      189103.315       -3091.995          43.000  
> 2012  9 14 12 45 44.9990000  0 16                     
G 3  20710545.906      -24519.754         459.326          44.000  
G 8  25407276.635     -110246.6473       1867.302          32.000  
G19  21894371.242     -137778.048        2318.413          42.000  
S38  36686634.166       69842.9332       -276.098          45.000  
G20  23658041.837      138789.808       -3249.617          36.000  
G 6  21647742.848       53391.885        -828.178          42.000  
G 7  22402222.068      -92125.448        1571.379          42.000  
G23  19835792.544       72075.457        -740.115          45.000  
G32  24919369.437      100694.2892      -3339.010          33.000  
G10  23658100.627      -47196.2742        330.847          36.000  
S33  36416813.751       29329.1422       -291.481          42.000  
G30  24051450.383      208364.0012      -3603.028          35.000  
G13  20446659.735      -91527.566        1537.375          45.000  
S35  37739763.496       15998.6892       -280.681          43.000  
G11  25753025.547      -63316.9873       1650.801          35.000  
G16  21844506.006      192194.301       -3091.165          43.000  
> 2012  9 14 12 45 45.9990000  0 16                     
G 3  20710458.777      -24979.147         457.793          44.000  
G 8  25406921.662     -112114.4912       1865.686          33.000  
G19  21893929.316     -140097.954        2319.213          42.000  
S38  36686686.953       70118.1432       -275.835          45.000  
G20  23658659.749      142037.834       -3248.701          36.000  
G 6  21647900.441       54219.498        -828.915          42.000  
G 7  22401922.709      -93697.438        1571.549          42.000  
G23  19835933.088       72815.112        -740.718          45.000  
G32  24920004.485      104031.4362      -3336.167          33.000  
G10  23658037.527      -47527.0202        329.507          36.000  
S33  36416869.033       29619.8752       -291.280          42.000  
G30  24052136.194      211966.9422      -3602.753          35.000  
G13  20446367.461      -93065.393        1536.732          45.000  
S35  37739816.824       16278.7282       -281.131          43.000  
G11  25752711.739      -64967.3422       1649.917          35.000  
G16  21845094.375      195285.004       -3091.704          43.000  
> 2012  9 14 12 45 46.9990000  0 16                     
G 3  20710371.631      -25437.578         457.781          44.000  
G 8  25406566.393     -113982.0482       1868.871          33.000  
G19  21893488.872     -142417.228        2319.012          42.000  
S38  36686739.233       70393.6622       -275.100          45.000  
G20  23659277.784      145286.075       -3249.160          36.000  
G 6  21648057.755       55048.022        -828.701          42.000  
G 7  22401623.246      -95269.111        1571.572          42.000  
G23  19836074.312       73555.653        -741.159          45.000  
G32  24920639.865      107368.6733      -3338.867          33.000  
G10  23657974.375      -47856.9042        329.064          36.000  
S33  36416924.577       29910.9882       -291.436          42.000  
G30  24052821.568      215570.1302      -3603.902          36.000  
G13  20446074.890      -94602.489        1536.258          45.000  
S35  37739870.013       16559.0042       -280.348          43.000  
G11  25752397.548      -66617.7182       1651.689          34.000  
G16  21845682.430      198376.210       -3091.568          43.000  
> 2012  9 14 12 45 47.9990000  0 16                     
G 3  20710284.222      -25895.692         457.134          44.000  
G 8  25406210.182     -115850.0503       1869.172          33.000  
G19  21893047.225     -144736.457        2318.740          42.000  
S38  36686791.828       70668.8902       -276.334          45.000  
G20  23659895.487      148533.991       -3248.036          36.000  
G 6  21648215.016       55876.796        -830.117          42.000  
G 7  22401324.376      -96841.104        1571.934          42.000  
G23  19836214.961       74296.454        -741.322          45.000  
G32  24921275.018      110705.4762      -3336.346          33.000  
G10  23657911.100      -48186.5683        329.188          36.000  
S33  36416979.458       30201.8792       -290.879          42.000  
G30  24053507.327      219172.9753      -3603.569          36.000  
G13  20445782.233      -96139.467        1536.500          45.000  
S35  37739923.114       16838.8762       -280.332          43.000  
G11  25752082.624      -68268.7552       1650.379          34.000  
G16  21846270.572      201467.262       -3091.534          43.000  
> 2012  9 14 12 45 48.9990000  0 16                     
G 3  20710197.006      -26353.830         457.108          44.000  
G 8  25405854.041     -117718.7673       1868.396          33.000  
G19  21892605.595     -147056.027        2318.386          42.000  
S38  36686843.429       70943.4552       -275.116          45.000  
G20  23660513.504      151781.187       -3246.598          36.000  
G 6  21648372.766       56705.526        -829.728          42.000  
G 7  22401024.599      -98413.772        1571.406          42.000  
G23  19836355.976       75037.157        -741.915          45.000  
G32  24921909.368      114041.3982      -3336.937          33.000  
G10  23657848.489      -48516.3712        329.325          36.000  
S33  36417034.933       30492.0052       -290.337          42.000  
G30  24054193.435      222775.0912      -3602.882          36.000  
G13  20445490.203      -97676.736        1535.909          45.000  
S35  37739975.953       17117.9232       -279.735          43.000  
G11  25751768.206      -69920.8772       1652.874          33.000  
G16  21846858.470      204557.823       -3091.263          43.000  
> 2012  9 14 12 45 49.9990000  0 16                     
G 3  20710110.069      -26811.616         457.086          44.000  
G 8  25405498.370     -119587.9122       1869.473          33.000  
G19  21892164.087     -149375.550        2319.220          42.000  
S38  36686895.779       71217.6462       -274.499          45.000  
G20  23661131.660      155028.011       -3247.472          36.000  
G 6  21648529.975       57534.560        -829.576          42.000  
G 7  22400725.240      -99986.743        1572.952          42.000  
G23  19836496.904       75778.164        -741.817          45.000  
G32  24922544.329      117376.8972      -3334.854          33.000  
G10  23657785.354      -48845.9442        329.440          36.000  
S33  36417089.814       30781.7692       -290.368          42.000  
G30  24054879.804      226376.8983      -3602.186          36.000  
G13  20445197.110      -99213.852        1536.794          45.000  
S35  37740029.298       17396.5782       -279.103          43.000  
G11  25751453.858      -71573.6523       1652.963          33.000  
G16  21847446.385      207648.273       -3090.798          43.000  
> 2012  9 14 12 45 50.9990000  0 16                     
G 3  20710023.045      -27268.925         456.857          44.000  
G 8  25405142.107     -121457.3322       1868.322          33.000  
G19  21891722.526     -151694.893        2319.100          42.000  
S38  36686947.781       71491.6892       -274.395          45.000  
G20  23661749.782      158274.640       -3248.000          36.000  
G 6  21648687.987       58364.011        -829.854          42.000  
G 7  22400425.690     -101559.897        1572.453          42.000  
G23  19836637.972       76519.563        -742.436          45.000  
G32  24923179.360      120711.9812      -3335.808          33.000  
G10  23657721.957      -49175.1172        328.939          36.000  
S33  36417144.660       31071.1842       -289.179          42.000  
G30  24055565.371      229978.4932      -3602.509          36.000  
G13  20444904.208     -100750.720        1536.324          45.000  
S35  37740082.207       17674.9192       -278.787          43.000  
G11  25751139.108      -73226.9003       1653.371          31.000  
G16  21848034.458      210738.725       -3090.788          43.000  
> 2012  9 14 12 45 51.9990000  0 16                     
G 3  20709935.776      -27725.668         455.950          44.000  
G 8  25404786.018     -123326.7902       1868.889          33.000  
G19  21891281.245     -154013.963        2317.991          42.000  
S38  36686999.521       71765.6972       -274.545          45.000  
G20  23662368.060      161521.159       -3247.620          37.000  
G 6  21648845.876       59193.975        -830.858          42.000  
G 7  22400126.593     -103133.100        1572.456          42.000  
G23  19836779.423       77261.486        -742.991          45.000  
G32  24923813.815      124046.8372      -3336.562          33.000  
G10  23657658.875      -49503.8232        328.254          36.000  
S33  36417199.750       31360.4932       -289.841          42.000  
G30  24056251.252      233579.9582      -3601.284          36.000  
G13  20444611.882     -102287.245        1535.223          45.000  
S35  37740135.308       17953.1122       -278.561          43.000  
G11  25750824.202      -74880.7403       1653.165          30.000  
G16  21848622.303      213829.291       -3091.448          43.000  
> 2012  9 14 12 45 52.9990000  0 15                     
G 3  20709848.909      -28182.212         456.816          44.000  
G 8  25404429.981     -125196.8912       1870.453          33.000  
G19  21890839.842     -156333.147        2319.645          42.000  
S38  36687051.784       72039.2222       -272.728          45.000  
G20  23662985.432      164767.183       -3245.102          37.000  
G 6  21649003.312       60024.097        -830.048          42.000  
G 7  22399826.990     -104706.769        1574.308          42.000  
G23  19836920.159       78003.511        -742.255          45.000  
G32  24924447.921      127381.0422      -3334.458          33.000  
G10  23657596.141      -49832.4812        328.501          36.000  
S33  36417253.863       31649.3672       -288.334          42.000  
G30  24056936.591      237180.9272      -3600.696          36.000  
G13  20444320.097     -103823.817        1536.208          45.000  
S35  37740188.148       18230.8322       -277.528          43.000  
G16  21849210.306      216919.572       -3090.225          43.000  
> 2012  9 14 12 45 53.9990000  0 15                     
G 3  20709761.728      -28638.476         457.406          44.000  
G 8  25404074.066     -127067.4322       1872.954          32.000  
G19  21890398.439     -158652.314        2320.760          42.000  
S38  36687103.681       72312.2612       -271.689          45.000  
G20  23663603.344      168012.781       -3244.225          37.000  
G 6  21649161.341       60854.446        -829.177          42.000  
G 7  22399527.544     -106280.804        1575.435          42.000  
G23  19837061.262       78745.770        -740.816          45.000  
G32  24925081.643      130714.7552      -3331.490          33.000  
G10  23657533.635      -50160.9302        329.795          36.000  
S33  36417309.023       31938.0082       -287.855          42.000  
G30  24057621.914      240781.4842      -3600.771          36.000  
G13  20444027.160     -105360.318        1537.972          45.000  
S35  37740241.004       18508.1512       -275.286          43.000  
G16  21849798.500      220009.677       -3088.475          43.000  
> 2012  9 14 12 45 54.9990000  0 15                     
G 3  20709674.965      -29094.386         454.844          44.000  
G 8  25403718.099     -128938.3002       1871.119          33.000  
G19  21889957.070     -160971.474        2317.811          42.000  
S38  36687155.822       72584.7832       -272.944          45.000  
G20  23664221.326      171258.037       -3245.759          37.000  
G 6  21649318.655       61685.106        -831.607          42.000  
G 7  22399227.942     -107855.118        1573.543          42.000  
G23  19837203.080       79488.318        -743.686          46.000  
G32  24925716.151      134047.456       -3332.756          33.000  
G10  23657471.494      -50489.168         327.290          36.000  
S33  36417363.957       32226.3322       -288.479          42.000  
G30  24058306.451      244381.7452      -3601.594          36.000  
G13  20443734.537     -106896.700        1535.606          45.000  
S35  37740293.564       18785.0972       -277.592          43.000  
G16  21850386.904      223099.660       -3090.393          43.000  
> 2012  9 14 12 45 55.9990000  0 15                     
G 3  20709588.866      -29549.470         456.167          44.000  
G 8  25403361.661     -130809.1332       1871.078          33.000  
G19  21889516.417     -163290.071        2318.792          42.000  
S38  36687207.213       72857.5012       -271.525          45.000  
G20  23664838.400      174503.445       -3244.171          37.000  
G 6  21649476.911       62516.553        -830.510          42.000  
G 7  22398927.903     -109429.257        1575.264          42.000  
G23  19837344.374       80231.629        -742.601          46.000  
G32  24926349.506      137381.1333      -3331.074          33.000  
G10  23657409.372      -50816.653         328.290          36.000  
S33  36417418.750       32514.7762       -287.442          42.000  
G30  24058991.494      247982.1312      -3599.122          36.000  
G13  20443442.455     -108432.495        1536.173          45.000  
S35  37740346.369       19062.1922       -276.496          43.000  
G16  21850974.628      226189.981       -3089.463          43.000  
> 2012  9 14 12 45 56.9990000  0 15                     
G 3  20709502.191      -30003.874         453.554          44.000  
G 8  25403005.589     -132679.9532       1870.426          33.000  
G19  21889075.712     -165608.287        2318.129          42.000  
S38  36687259.250       73130.2682       -273.671          45.000  
G20  23665456.557      177748.858       -3244.036          37.000  
G 6  21649635.481       63348.632        -832.347          42.000  
G 7  22398628.282     -111003.378        1573.311          42.000  
G23  19837485.773       80975.545        -744.350          46.000  
G32  24926983.159      140714.1462      -3332.520          33.000  
G10  23657346.935      -51143.618         326.580          36.000  
S33  36417473.561       32803.3432       -288.485          42.000  
G30  24059675.804      251582.4802      -3600.391          36.000  
G13  20443150.321     -109967.809        1534.816          45.000  
S35  37740399.435       19339.2592       -277.320          43.000  
G16  21851563.363      229280.543       -3090.593          43.000  
> 2012  9 14 12 45 57.9990000  0 15                     
G 3  20709415.376      -30458.512         454.205          45.000  
G 8  25402649.099     -134551.7542       1872.151          33.000  
G19  21888634.239     -167927.065        2318.008          42.000  
S38  36687311.391       73402.2122       -272.303          45.000  
G20  23666073.771      180993.283       -3245.282          37.000  
G 6  21649793.702       64180.392        -832.790          42.000  
G 7  22398329.046     -112578.380        1574.028          42.000  
G23  19837626.858       81719.156        -744.403          46.000  
G32  24927617.090      144046.1162      -3333.552          33.000  
G10  23657285.667      -51470.884         325.918          36.000  
S33  36417528.146       33090.9872       -288.273          42.000  
G30  24060361.144      255181.9552      -3599.487          36.000  
G13  20442858.100     -111503.609        1534.935          45.000  
S35  37740451.436       19615.3852       -276.500          43.000  
G16  21852151.488      232370.383       -3090.670          43.000  
> 2012  9 14 12 45 58.9990000  0 15                     
G 3  20709328.997      -30912.988         453.519          45.000  
G 8  25402292.364     -136424.1322       1872.857          33.000  
G19  21888192.801     -170245.966        2317.514          42.000  
S38  36687362.800       73673.7262       -272.161          45.000  
G20  23666690.846      184237.213       -3245.083          37.000  
G 6  21649952.185       65012.324        -833.103          42.000  
G 7  22398028.902     -114153.836        1575.244          42.000  
G23  19837768.694       82462.867        -744.695          45.000  
G32  24928251.179      147377.4533      -3332.016          34.000  
G10  23657223.928      -51798.0973        326.065          36.000  
S33  36417582.870       33377.9842       -287.562          42.000  
G30  24061045.210      258780.8962      -3599.440          36.000  
G13  20442566.210     -113039.456        1534.613          45.000  
S35  37740503.386       19891.0812       -276.905          43.000  
G16  21852739.281      235459.910       -3090.659          43.000  
> 2012  9 14 12 45 59.9990000  0 15                     
G 3  20709242.898      -31366.631         453.142          45.000  
G 8  25401936.118     -138296.4252       1873.019          34.000  
G19  21887751.328     -172564.327        2318.461          42.000  
S38  36687414.295       73945.5312       -271.521          45.000  
G20  23667307.903      187481.305       -3244.917          37.000  
G 6  21650110.459       65844.993        -832.742          42.000  
G 7  22397729.177     -115729.127        1575.857          42.000  
G23  19837909.988       83207.355        -745.036          45.000  
G32  24928885.110      150708.7822      -3332.659          34.000  
G10  23657161.561      -52124.5862        326.110          36.000  
S33  36417637.035       33664.9822       -287.503          42.000  
G30  24061730.096      262379.9422      -3599.350          35.000  
G13  20442273.727     -114574.684        1534.669          45.000  
S35  37740555.684       20167.0232       -275.473          43.000  
G16  21853327.510      238549.842       -3089.736          43.000  
> 2012  9 14 12 46  0.9990000  0 15                     
G 3  20709156.607      -31819.811         452.106          45.000  
G 8  25401580.046     -140168.971        1872.648          34.000  
G19  21887310.762     -174882.536        2317.840          43.000  
S38  36687466.105       74217.0062       -271.670          45.000  
G20  23667925.135      190725.140       -3243.872          37.000  
G 6  21650269.011       66678.064        -833.596          42.000  
G 7  22397429.575     -117304.617        1575.358          42.000  
G23  19838051.457       83952.221        -745.738          45.000  
G32  24929519.600      154039.7332      -3330.363          33.000  
G10  23657100.049      -52450.7412        325.284          36.000  
S33  36417690.834       33951.5932       -288.268          42.000  
G30  24062415.227      265978.284       -3600.742          35.000  
G13  20441981.645     -116109.697        1534.498          45.000  
S35  37740608.453       20442.8382       -275.996          43.000  
G16  21853916.019      241639.716       -3090.026          43.000  
> 2012  9 14 12 46  1.9990000  0 15                     
G 3  20709069.862      -32272.848         452.025          45.000  
G 8  25401223.224     -142042.139        1871.909          34.000  
G19  21886869.970     -177200.933        2317.385          43.000  
S38  36687517.286       74487.8322       -271.742          45.000  
G20  23668542.401      193968.450       -3244.074          37.000  
G 6  21650427.878       67511.232        -834.312          42.000  
G 7  22397129.850     -118880.607        1575.124          42.000  
G23  19838193.275       84697.177        -746.136          45.000  
G32  24930153.549      157370.0062      -3331.287          33.000  
G10  23657037.263      -52776.8432        325.056          36.000  
S33  36417745.732       34237.7682       -286.547          42.000  
G30  24063099.869      269576.608       -3598.692          35.000  
G13  20441689.476     -117644.792        1534.239          45.000  
S35  37740660.577       20718.0402       -275.820          43.000  
G16  21854503.725      244729.288       -3090.487          43.000  
> 2012  9 14 12 46  2.9990000  0 15                     
G 3  20708983.902      -32725.432         451.393          45.000  
G 8  25400867.152     -143915.544        1872.678          34.000  
G19  21886428.985     -179519.129        2317.019          43.000  
S38  36687568.974       74758.2782       -271.151          45.000  
G20  23669159.005      197211.512       -3243.782          36.000  
G 6  21650586.623       68344.832        -834.412          42.000  
G 7  22396829.339     -120456.7763       1575.214          42.000  
G23  19838335.006       85442.533        -746.541          45.000  
G32  24930787.603      160699.9243      -3330.318          33.000  
G10  23656975.699      -53102.5923        325.143          36.000  
S33  36417800.282       34523.9602       -286.872          42.000  
G30  24063783.952      273175.1593      -3599.957          36.000  
G13  20441397.534     -119179.638        1533.526          45.000  
S35  37740712.893       20993.0102       -275.582          43.000  
G16  21855091.343      247818.864       -3090.038          43.000  
> 2012  9 14 12 46  3.9990000  0 16                     
G 3  20708898.117      -33176.876         450.635          45.000  
G 8  25400511.116     -145788.527        1870.867          34.000  
G19  21885987.530     -181836.492        2317.160          43.000  
S38  36687620.277       75029.1152       -270.877          45.000  
G20  23669775.765      200455.017       -3244.079          36.000  
G 6  21650745.332       69179.514        -835.335          42.000  
G 7  22396529.405     -122032.4512       1575.528          41.000  
G23  19838477.085       86188.949        -747.497          45.000  
G32  24931421.116      164030.1203      -3331.341          33.000  
G10  23656913.646      -53427.3362        323.638          37.000  
S33  36417855.128       34810.5892       -287.063          42.000  
G30  24064468.786      276773.6662      -3596.656          36.000  
G13  20441105.330     -120713.573        1532.893          45.000  
S35  37740765.471       21268.4292       -276.066          43.000  
G11  25747035.585      -94764.1513       1661.074          28.000  
G16  21855679.206      250909.070       -3090.494          43.000  
> 2012  9 14 12 46  4.9990000  0 16                     
G 3  20708812.576      -33627.833         450.464          45.000  
G 8  25400154.625     -147661.764        1872.306          34.000  
G19  21885546.423     -184153.687        2316.945          43.000  
S38  36687672.070       75299.9072       -271.028          45.000  
G20  23670392.700      203698.342       -3244.575          36.000  
G 6  21650904.339       70014.613        -835.438          42.000  
G 7  22396228.773     -123608.2912       1576.266          41.000  
G23  19838618.729       86935.801        -747.511          45.000  
G32  24932054.925      167360.0222      -3329.156          33.000  
G10  23656852.047      -53751.6782        323.080          37.000  
S33  36417909.607       35097.0012       -285.824          42.000  
G30  24065153.236      280371.9832      -3598.413          36.000  
G13  20440813.755     -122247.247        1533.451          45.000  
S35  37740817.943       21543.7652       -275.098          43.000  
G11  25746723.767      -96425.3553       1660.951          29.000  
G16  21856267.610      253999.326       -3090.090          43.000  
> 2012  9 14 12 46  5.9990000  0 16                     
G 3  20708726.249      -34078.590         451.336          45.000  
G 8  25399797.925     -149535.527        1874.988          34.000  
G19  21885105.177     -186470.985        2318.662          42.000  
S38  36687722.937       75570.4072       -269.364          45.000  
G20  23671009.129      206941.137       -3241.497          36.000  
G 6  21651063.694       70849.889        -834.502          42.000  
G 7  22395928.367     -125184.5942       1577.558          41.000  
G23  19838760.896       87682.763        -746.231          45.000  
G32  24932687.740      170689.2552      -3327.137          33.000  
G10  23656789.854      -54075.9302        325.858          37.000  
S33  36417963.825       35382.9362       -284.652          42.000  
G30  24065838.244      283969.8062      -3597.501          36.000  
G13  20440521.428     -123780.953        1534.953          45.000  
S35  37740869.753       21818.7152       -273.168          43.000  
G11  25746406.068      -98087.2163       1663.264          30.000  
G16  21856855.543      257089.274       -3088.962          43.000  
> 2012  9 14 12 46  6.9990000  0 16                     
G 3  20708640.656      -34528.751         451.094          45.000  
G 8  25399441.382     -151409.450        1874.288          34.000  
G19  21884663.808     -188787.983        2318.359          42.000  
S38  36687773.996       75840.8762       -269.302          45.000  
G20  23671626.518      210183.865       -3241.047          36.000  
G 6  21651222.701       71685.690        -835.110          42.000  
G 7  22395628.503     -126760.9402       1576.840          42.000  
G23  19838902.731       88430.275        -746.625          45.000  
G32  24933321.095      174018.2652      -3328.588          33.000  
G10  23656728.482      -54399.7112        324.426          37.000  
S33  36418017.956       35668.8102       -283.954          42.000  
G30  24066523.427      287567.5512      -3594.628          36.000  
G13  20440229.155     -125314.293        1534.144          45.000  
S35  37740921.772       22093.5562       -273.571          43.000  
G11  25746090.132      -99749.6683       1663.680          30.000  
G16  21857443.161      260179.368       -3089.081          43.000  
> 2012  9 14 12 46  7.9990000  0 16                     
G 3  20708555.028      -34978.274         450.555          45.000  
G 8  25399085.049     -153283.444        1874.693          34.000  
G19  21884223.033     -191104.632        2317.678          42.000  
S38  36687825.021       76111.1882       -269.067          45.000  
G20  23672243.348      213426.474       -3243.053          36.000  
G 6  21651381.829       72522.093        -836.014          42.000  
G 7  22395328.551     -128337.2882       1577.648          41.000  
G23  19839045.840       89178.359        -747.062          45.000  
G32  24933954.276      177347.0533      -3327.871          33.000  
G10  23656667.004      -54722.9662        322.672          37.000  
S33  36418072.296       35954.5852       -284.849          42.000  
G30  24067207.929      291165.2212      -3597.840          37.000  
G13  20439937.544     -126847.208        1533.809          45.000  
S35  37740974.332       22368.3072       -273.518          43.000  
G11  25745776.133     -101412.5793       1662.776          31.000  
G16  21858031.408      263269.627       -3089.172          43.000  
> 2012  9 14 12 46  8.9990000  0 16                     
G 3  20708469.853      -35427.029         450.209          45.000  
G 8  25398728.297     -155157.436        1876.584          34.000  
G19  21883782.450     -193420.817        2317.754          43.000  
S38  36687877.005       76381.3322       -268.627          45.000  
G20  23672860.667      216669.221       -3241.184          36.000  
G 6  21651541.062       73359.226        -835.668          42.000  
G 7  22395028.390     -129913.4922       1578.575          41.000  
G23  19839188.286       89927.140        -747.276          45.000  
G32  24934587.859      180675.7902      -3327.417          33.000  
G10  23656605.335      -55045.5352        325.116          37.000  
S33  36418126.287       36240.3632       -283.846          42.000  
G30  24067893.409      294762.9642      -3595.805          37.000  
G13  20439645.654     -128379.580        1534.308          45.000  
S35  37741026.526       22643.1142       -273.534          43.000  
G11  25745458.993     -103075.6223       1663.665          31.000  
G16  21858619.411      266360.187       -3088.671          43.000  
> 2012  9 14 12 46  9.9990000  0 16                     
G 3  20708384.609      -35875.289         448.917          45.000  
G 8  25398371.719     -157031.641        1876.610          34.000  
G19  21883341.885     -195736.783        2316.512          43.000  
S38  36687928.379       76651.2452       -269.736          45.000  
G20  23673477.846      219911.725       -3243.261          36.000  
G 6  21651700.278       74196.772        -837.594          42.000  
G 7  22394728.333     -131489.8932       1577.092          41.000  
G23  19839330.802       90676.331        -748.675          45.000  
G32  24935221.459      184004.2562      -3328.006          33.000  
G10  23656543.614      -55367.7222        323.305          36.000  
S33  36418180.365       36525.9432       -284.963          42.000  
G30  24068578.330      298360.5522      -3597.111          37.000  
G13  20439354.114     -129911.679        1533.083          45.000  
S35  37741078.597       22917.7762       -273.854          43.000  
G11  25745141.102     -104739.1362       1667.010          32.000  
G16  21859207.797      269450.780       -3090.124          43.000  
> 2012  9 14 12 46 10.9990000  0 16                     
G 3  20708299.661      -36323.491         447.202          45.000  
G 8  25398014.775     -158906.507        1874.625          34.000  
G19  21882900.691     -198053.010        2315.454          42.000  
S38  36687979.490       76920.5722       -269.814          45.000  
G20  23674095.008      223153.700       -3243.230          36.000  
G 6  21651859.843       75034.365        -838.442          42.000  
G 7  22394427.701     -133066.8502       1576.095          41.000  
G23  19839473.074       91425.527        -750.214          45.000  
G32  24935854.465      187331.9002      -3325.542          33.000  
G10  23656482.730      -55689.9482        320.909          36.000  
S33  36418234.583       36811.0482       -285.320          42.000  
G30  24069263.181      301957.5002      -3597.977          37.000  
G13  20439062.608     -131443.946        1531.825          45.000  
S35  37741130.861       23191.7452       -274.975          43.000  
G11  25744824.293     -106403.6673       1662.994          32.000  
G16  21859795.590      272540.959       -3091.057          43.000  
> 2012  9 14 12 46 11.9990000  0 16                     
G 3  20708213.963      -36771.3163        446.905          45.000  
G 8  25397658.179     -160782.2323       1874.389          34.000  
G19  21882459.392     -200369.6623       2315.620          42.000  
S38  36688030.951       77189.1903       -269.420          45.000  
G20  23674711.577      226395.2503      -3242.056          36.000  
G 6  21652018.483       75871.8153       -838.688          42.000  
G 7  22394126.981     -134644.5373       1576.978          41.000  
G23  19839615.084       92174.5513       -750.434          45.000  
G32  24936487.402      190658.7213      -3327.481          33.000  
G10  23656420.869      -56012.3883        321.544          36.000  
S33  36418288.312       37095.5013       -285.441          42.000  
G30  24069947.282      305553.6763      -3596.755          36.000  
G13  20438770.631     -132976.5463       1531.384          45.000  
S35  37741183.141       23464.8453       -274.115          43.000  
G11  25744503.698     -108069.3003       1664.843          33.000  
G16  21860383.174      275631.0403      -3090.655          43.000  
> 2012  9 14 12 46 12.9990000  0 16                     
G 3  20708129.400      -37218.5623        446.890          45.000  
G 8  25397300.816     -162657.1453       1875.123          34.000  
G19  21882018.914     -202685.5223       2315.820          42.000  
S38  36688082.115       77458.2763       -269.161          45.000  
G20  23675328.145      229637.2473      -3242.433          36.000  
G 6  21652178.519       76710.2213       -838.559          42.000  
G 7  22393827.483     -136221.3913       1577.811          41.000  
G23  19839758.228       92924.5403       -750.334          45.000  
G32  24937120.531      193986.0613      -3326.398          33.000  
G10  23656359.462      -56333.9013        321.649          36.000  
S33  36418343.176       37380.9143       -285.554          42.000  
G30  24070631.418      309150.6423      -3596.929          36.000  
G13  20438479.299     -134507.8213       1531.274          45.000  
S35  37741235.073       23738.2293       -273.436          43.000  
G11  25744192.596     -109734.9433       1666.774          33.000  
G16  21860971.194      278721.2253      -3090.427          43.000  
> 2012  9 14 12 46 13.9990000  0 16                     
G 3  20708044.103      -37665.5572        446.740          45.000  
G 8  25396943.296     -164532.9843       1876.624          34.000  
G19  21881577.877     -205001.4322       2315.244          42.000  
S38  36688133.436       77726.8942       -269.241          45.000  
G20  23675944.783      232878.2772      -3241.591          36.000  
G 6  21652337.996       77548.8622       -838.254          42.000  
G 7  22393526.973     -137799.1022       1578.345          41.000  
G23  19839901.093       93674.7472       -750.894          45.000  
G32  24937753.328      197312.3933      -3328.179          33.000  
G10  23656298.456      -56655.2682        320.918          36.000  
S33  36418397.690       37665.2792       -283.934          42.000  
G30  24071315.972      312746.7382      -3595.138          36.000  
G13  20438187.706     -136039.5492       1531.425          45.000  
S35  37741287.075       24011.3022       -273.765          43.000  
G11  25743873.431     -111401.3232       1667.772          33.000  
G16  21861559.371      281811.2142      -3090.474          43.000  
> 2012  9 14 12 46 14.9990000  0 16                     
G 3  20707958.004      -38112.5772        445.908          45.000  
G 8  25396586.439     -166409.6142       1874.625          35.000  
G19  21881137.067     -207317.6642       2315.459          42.000  
S38  36688183.850       77994.7422       -268.551          45.000  
G20  23676561.282      236118.5882      -3240.277          36.000  
G 6  21652497.962       78387.4302       -839.669          42.000  
G 7  22393226.410     -139377.4872       1578.150          41.000  
G23  19840044.132       94424.8672       -751.308          45.000  
G32  24938385.271      200637.9412      -3325.838          32.000  
G10  23656237.049      -56976.7792        320.012          37.000  
S33  36418450.878       37948.7512       -284.262          42.000  
G30  24071999.864      316342.0832      -3596.273          36.000  
G13  20437896.078     -137571.5442       1531.176          45.000  
S35  37741338.518       24283.7202       -273.177          43.000  
G11  25743556.465     -113068.7663       1665.922          34.000  
G16  21862147.007      284900.6872      -3089.536          43.000  
> 2012  9 14 12 46 15.9990000  0 16                     
G 3  20707872.934      -38558.8432        444.812          45.000  
G 8  25396228.762     -168286.1862       1875.979          35.000  
G19  21880696.449     -209633.4212       2314.891          42.000  
S38  36688234.839       78262.6922       -268.948          45.000  
G20  23677177.851      239358.9462      -3241.068          35.000  
G 6  21652657.457       79226.7262       -840.269          42.000  
G 7  22392926.022     -140955.7552       1576.643          41.000  
G23  19840186.194       95175.6732       -751.751          45.000  
G32  24939017.754      203963.3813      -3327.486          32.000  
G10  23656176.706      -57297.5982        319.113          36.000  
S33  36418504.799       38232.3282       -284.696          42.000  
G30  24072683.581      319937.5223      -3595.533          36.000  
G13  20437604.677     -139102.9902       1529.972          45.000  
S35  37741390.572       24556.1162       -273.567          43.000  
G11  25743239.447     -114736.4262       1666.891          34.000  
G16  21862735.219      287990.4612      -3091.001          43.000  
> 2012  9 14 12 46 16.9990000  0 16                     
G 3  20707788.545      -39003.9122        444.083          45.000  
G 8  25395872.446     -170162.3372       1875.976          35.000  
G19  21880255.849     -211948.3062       2314.219          42.000  
S38  36688286.335       78531.1342       -268.850          45.000  
G20  23677794.925      242599.8292      -3242.088          36.000  
G 6  21652817.301       80067.1282       -841.545          42.000  
G 7  22392626.018     -142533.4752       1577.318          41.000  
G23  19840329.461       95927.6022       -752.391          45.000  
G32  24939649.748      207289.2012      -3323.645          32.000  
G10  23656115.560      -57617.3632        318.812          36.000  
S33  36418559.366       38516.6682       -285.162          42.000  
G30  24073368.048      323533.4532      -3596.365          36.000  
G13  20437312.752     -140633.4542       1529.840          45.000  
S35  37741442.434       24828.9302       -272.716          43.000  
G11  25742921.749     -116403.9253       1667.906          34.000  
G16  21863323.536      291080.9372      -3091.265          43.000  
> 2012  9 14 12 46 17.9990000  0 16                     
G 3  20707703.353      -39448.6612        444.146          45.000  
G 8  25395515.136     -172038.8442       1877.106          35.000  
G19  21879815.789     -214263.1562       2314.811          42.000  
S38  36688336.731       78799.2112       -268.073          45.000  
G20  23678411.930      245840.3162      -3242.065          35.000  
G 6  21652977.442       80907.8232       -841.850          42.000  
G 7  22392325.648     -144111.5402       1578.418          41.000  
G23  19840472.500       96679.7672       -752.727          45.000  
G32  24940282.703      210614.5083      -3324.277          32.000  
G10  23656054.711      -57936.9082        319.822          36.000  
S33  36418613.322       38800.5862       -284.160          42.000  
G30  24074052.585      327129.0212      -3596.206          36.000  
G13  20437021.578     -142163.8522       1530.020          45.000  
S35  37741494.244       25101.3772       -273.194          43.000  
G11  25742604.538     -118072.0982       1667.502          34.000  
G16  21863911.608      294171.2702      -3090.736          43.000  
> 2012  9 14 12 46 18.9990000  0 16                     
G 3  20707618.737      -39893.3342        443.817          45.000  
G 8  25395157.877     -173916.0903       1876.929          35.000  
G19  21879374.229     -216578.2652       2314.407          42.000  
S38  36688387.319       79066.7302       -269.083          45.000  
G20  23679028.499      249080.2072      -3241.170          35.000  
G 6  21653137.513       81748.5402       -842.007          42.000  
G 7  22392025.853     -145690.1782       1577.438          41.000  
G23  19840615.191       97431.9422       -753.368          45.000  
G32  24940914.400      213938.9993      -3324.073          32.000  
G10  23655993.775      -58256.5212        317.289          36.000  
S33  36418666.842       39083.7502       -284.124          42.000  
G30  24074736.337      330723.9583      -3596.304          36.000  
G13  20436730.369     -143694.4062       1529.267          45.000  
S35  37741545.303       25373.1292       -272.985          43.000  
G11  25742287.102     -119741.2302       1666.127          34.000  
G16  21864499.907      297261.1872      -3091.452          43.000  
> 2012  9 14 12 46 19.9990000  0 16                     
G 3  20707534.016      -40337.6882        443.453          45.000  
G 8  25394800.951     -175793.6803       1877.818          34.000  
G19  21878933.890     -218893.3292       2313.845          42.000  
S38  36688438.326       79333.9692       -267.956          45.000  
G20  23679644.631      252319.7122      -3239.884          35.000  
G 6  21653297.374       82589.5272       -841.981          42.000  
G 7  22391724.680     -147269.1242       1578.402          41.000  
G23  19840758.858       98184.3892       -753.592          45.000  
G32  24941546.779      217263.0233      -3326.190          32.000  
G10  23655932.647      -58575.8572        318.448          36.000  
S33  36418720.868       39366.5652       -283.937          42.000  
G30  24075420.316      334318.5242      -3595.444          37.000  
G13  20436438.793     -145224.8372       1529.291          45.000  
S35  37741596.816       25644.5552       -271.957          43.000  
G11  25741969.263     -121411.0722       1666.978          34.000  
G16  21865087.421      300350.9652      -3090.703          43.000  
> 2012  9 14 12 46 20.9990000  0 16                     
G 3  20707449.679      -40780.7832        441.822          45.000  
G 8  25394443.448     -177670.7602       1876.161          34.000  
G19  21878492.975     -221207.4222       2313.517          42.000  
S38  36688489.106       79601.7472       -268.292          45.000  
G20  23680260.868      255559.7752      -3241.940          35.000  
G 6  21653457.515       83431.7262       -843.389          42.000  
G 7  22391424.239     -148847.4672       1577.140          41.000  
G23  19840902.596       98938.0202       -754.728          45.000  
G32  24942179.314      220587.4842      -3324.465          32.000  
G10  23655871.693      -58894.1202        316.501          36.000  
S33  36418774.946       39650.0002       -284.343          42.000  
G30  24076104.748      337913.6532      -3594.120          37.000  
G13  20436147.130     -146754.2432       1528.545          45.000  
S35  37741648.382       25916.6362       -272.230          43.000  
G11  25741651.006     -123080.6672       1669.257          33.000  
G16  21865675.965      303441.5332      -3091.546          43.000  
> 2012  9 14 12 46 21.9990000  0 16                     
G 3  20707365.900      -41223.1782        441.633          44.000  
G 8  25394085.492     -179547.8783       1877.117          34.000  
G19  21878053.334     -223521.1192       2312.688          42.000  
S38  36688540.637       79869.4752       -268.270          45.000  
G20  23680877.035      258799.8662      -3239.672          35.000  
G 6  21653618.074       84274.5922       -843.393          42.000  
G 7  22391123.956     -150425.7602       1578.192          41.000  
G23  19841046.002       99692.2982       -755.017          45.000  
G32  24942812.216      223911.8323      -3321.867          31.000  
G10  23655810.338      -59211.6732        317.892          36.000  
S33  36418828.972       39933.4112       -283.572          42.000  
G30  24076788.744      341508.8102      -3595.479          37.000  
G13  20435856.601     -148283.1622       1528.354          45.000  
S35  37741700.855       26188.8742       -272.754          43.000  
G11  25741332.993     -124750.5522       1670.248          33.000  
G16  21866264.142      306532.3382      -3091.446          43.000  
> 2012  9 14 12 46 22.9990000  0 16                     
G 3  20707281.825      -41664.8972        442.357          44.000  
G 8  25393728.094     -181425.0612       1878.198          34.000  
G19  21877612.507     -225834.4242       2314.276          42.000  
S38  36688591.644       80137.2472       -267.259          45.000  
G20  23681493.464      262039.9532      -3238.921          35.000  
G 6  21653778.302       85118.0722       -842.992          42.000  
G 7  22390823.393     -152004.0142       1578.479          41.000  
G23  19841188.884      100447.1932       -754.075          45.000  
G32  24943444.839      227235.9592      -3322.766          31.000  
G10  23655750.728      -59528.7672        316.785          36.000  
S33  36418882.893       40217.0612       -282.667          42.000  
G30  24077472.775      345103.9512      -3595.107          37.000  
G13  20435566.055     -149811.6282       1529.167          45.000  
S35  37741752.350       26461.1872       -271.521          43.000  
G11  25741015.539     -126420.7582       1671.911          33.000  
G16  21866852.179      309623.3552      -3090.412          43.000  
> 2012  9 14 12 46 23.9990000  0 16                     
G 3  20707197.663      -42106.0942        442.833          44.000  
G 8  25393370.923     -183302.4292       1881.029          34.000  
G19  21877172.744     -228147.5322       2314.737          42.000  
S38  36688642.302       80404.8792       -265.575          45.000  
G20  23682110.068      265279.7772      -3238.995          35.000  
G 6  21653938.583       85962.0332       -842.200          42.000  
G 7  22390523.372     -153582.4022       1580.742          41.000  
G23  19841332.901      101202.5292       -753.367          45.000  
G32  24944076.903      230559.8523      -3322.703          31.000  
G10  23655690.682      -59845.3952        318.244          36.000  
S33  36418936.588       40500.4382       -281.278          42.000  
G30  24078157.121      348698.9342      -3593.094          37.000  
G13  20435275.980     -151339.8132       1530.021          45.000  
S35  37741804.142       26733.2472       -270.134          43.000  
G11  25740696.916     -128091.5342       1672.203          33.000  
G16  21867440.426      312714.3942      -3089.155          43.000  
> 2012  9 14 12 46 24.9990000  0 16                     
G 3  20707113.239      -42548.044         441.013          44.000  
G 8  25393013.769     -185180.8143       1877.561          34.000  
G19  21876732.004     -230461.183        2312.376          42.000  
S38  36688692.803       80671.6362       -266.471          45.000  
G20  23682725.659      268518.757       -3238.884          35.000  
G 6  21654098.811       86805.681        -843.878          42.000  
G 7  22390223.088     -155162.176        1579.464          41.000  
G23  19841476.533      101957.540        -755.771          45.000  
G32  24944708.758      233882.6273      -3323.276          31.000  
G10  23655629.886      -60162.3903        318.045          36.000  
S33  36418990.073       40782.7222       -283.294          42.000  
G30  24078840.384      352292.9602      -3593.362          37.000  
G13  20434984.928     -152868.970        1527.922          45.000  
S35  37741856.301       27004.4082       -270.899          43.000  
G11  25740378.397     -129763.4603       1672.582          34.000  
G16  21868028.935      315804.224       -3090.856          44.000  
> 2012  9 14 12 46 25.9990000  0 16                     
G 3  20707029.163      -42989.083         440.427          44.000  
G 8  25392655.481     -187059.4742       1878.113          34.000  
G19  21876291.718     -232774.714        2312.946          42.000  
S38  36688743.251       80938.2172       -266.469          45.000  
G20  23683341.442      271757.380       -3238.934          35.000  
G 6  21654259.824       87649.682        -844.398          43.000  
G 7  22389922.543     -156741.712        1579.330          41.000  
G23  19841620.166      102712.895        -755.953          45.000  
G32  24945340.735      237205.0153      -3322.477          31.000  
G10  23655569.246      -60479.1082        316.353          36.000  
S33  36419044.133       41064.6812       -281.756          42.000  
G30  24079524.467      355886.6972      -3593.580          37.000  
G13  20434693.806     -154397.441        1528.450          45.000  
S35  37741907.099       27275.2252       -270.748          43.000  
G11  25740060.018     -131436.0552       1673.457          34.000  
G16  21868616.693      318894.473       -3090.604          44.000  
> 2012  9 14 12 46 26.9990000  0 16                     
G 3  20706944.757      -43429.794         439.797          44.000  
G 8  25392297.996     -188938.5942       1877.517          34.000  
G19  21875852.024     -235088.206        2312.920          42.000  
S38  36688793.508       81204.4262       -266.669          45.000  
G20  23683957.383      274995.661       -3237.939          35.000  
G 6  21654420.662       88493.968        -845.292          43.000  
G 7  22389621.492     -158321.559        1579.035          41.000  
G23  19841763.380      103468.531        -756.642          45.000  
G32  24945972.887      240526.8752      -3321.391          30.000  
G10  23655509.357      -60795.5872        315.792          36.000  
S33  36419097.147       41346.2652       -281.464          42.000  
G30  24080207.835      359480.0852      -3593.508          37.000  
G13  20434403.260     -155925.798        1527.459          45.000  
S35  37741958.141       27545.7562       -271.010          43.000  
G11  25739741.219     -133109.3713       1673.355          33.000  
G16  21869204.451      321984.596       -3090.519          44.000  
> 2012  9 14 12 46 27.9990000  0 16                     
G 3  20706861.170      -43870.148         439.432          44.000  
G 8  25391939.795     -190818.0562       1879.253          34.000  
G19  21875411.511     -237401.651        2312.958          42.000  
S38  36688844.026       81470.2752       -266.963          45.000  
G20  23684573.113      278233.591       -3239.677          35.000  
G 6  21654581.379       89338.561        -845.765          43.000  
G 7  22389321.156     -159901.676        1579.337          41.000  
G23  19841907.589      104224.445        -756.742          45.000  
G32  24946604.724      243848.2383      -3323.145          30.000  
G10  23655448.560      -61111.8672        314.958          36.000  
S33  36419150.772       41627.5102       -281.496          42.000  
G30  24080891.395      363073.1262      -3593.528          37.000  
G13  20434112.365     -157454.035        1527.495          45.000  
S35  37742009.322       27815.9672       -271.371          43.000  
G11  25739422.736     -134783.3333       1673.774          33.000  
G16  21869792.558      325074.600       -3091.324          43.000  
> 2012  9 14 12 46 28.9990000  0 16                     
G 3  20706777.688      -44309.900         437.744          44.000  
G 8  25391582.659     -192697.6412       1877.615          34.000  
G19  21874970.753     -239714.786        2311.719          42.000  
S38  36688894.964       81735.9782       -266.680          45.000  
G20  23685189.158      281471.460       -3239.924          35.000  
G 6  21654742.252       90183.719        -846.636          43.000  
G 7  22389020.350     -161481.874        1579.539          41.000  
G23  19842051.518      104980.890        -758.079          45.000  
G32  24947236.038      247169.3613      -3321.661          30.000  
G10  23655388.532      -61427.5832        315.534          36.000  
S33  36419203.663       41908.8762       -282.369          42.000  
G30  24081574.798      366666.1292      -3593.709          37.000  
G13  20433821.348     -158981.881        1526.408          45.000  
S35  37742061.184       28086.2162       -271.219          43.000  
G11  25739104.601     -136457.6753       1672.762          33.000  
G16  21870381.154      328164.740       -3091.425          44.000  
> 2012  9 14 12 46 29.9990000  0 16                     
G 3  20706694.189      -44748.327         437.389          44.000  
G 8  25391224.860     -194576.6092       1877.735          34.000  
G19  21874530.659     -242026.903        2310.901          42.000  
S38  36688945.447       82002.1512       -267.167          45.000  
G20  23685804.663      284709.921       -3238.331          35.000  
G 6  21654903.405       91030.127        -847.727          42.000  
G 7  22388719.927     -163061.381        1578.818          41.000  
G23  19842195.500      105738.615        -758.381          45.000  
G32  24947868.522      250491.0343      -3321.010          30.000  
G10  23655328.590      -61742.1182        313.654          36.000  
S33  36419257.445       42190.8672       -282.823          42.000  
G30  24082258.149      370259.7222      -3593.388          37.000  
G13  20433530.575     -160508.621        1526.048          45.000  
S35  37742112.680       28357.0762       -272.056          43.000  
G11  25738785.803     -138131.7233       1673.287          34.000  
G16  21870969.035      331255.734       -3091.751          44.000  
> 2012  9 14 12 46 30.9990000  0 16                     
G 3  20706610.864      -45186.057         437.072          44.000  
G 8  25390867.846     -196455.6342       1878.770          34.000  
G19  21874090.983     -244338.628        2310.780          42.000  
S38  36688996.157       82268.3122       -266.538          45.000  
G20  23686421.423      287948.391       -3238.285          35.000  
G 6  21655064.209       91877.200        -848.235          42.000  
G 7  22388418.928     -164640.837        1578.637          41.000  
G23  19842339.639      106496.933        -758.949          45.000  
G32  24948500.359      253812.5273      -3324.040          30.000  
G10  23655268.788      -62056.0512        313.387          36.000  
S33  36419311.506       42472.8062       -281.779          42.000  
G30  24082941.883      373853.316       -3594.332          37.000  
G13  20433239.941     -162034.904        1525.231          45.000  
S35  37742164.123       28627.8652       -271.554          43.000  
G11  25738467.249     -139806.1042       1676.273          34.000  
G16  21871557.473      334346.938       -3091.606          44.000  
> 2012  9 14 12 46 31.9990000  0 16                     
G 3  20706527.400      -45623.644         436.713          45.000  
G 8  25390509.663     -198335.2622       1878.531          34.000  
G19  21873651.151     -246650.475        2310.645          42.000  
S38  36689046.466       82534.0522       -266.889          45.000  
G20  23687038.218      291186.3073      -3240.372          35.000  
G 6  21655225.466       92724.363        -847.903          42.000  
G 7  22388118.034     -166220.805        1578.921          41.000  
G23  19842484.249      107255.344        -760.016          45.000  
G32  24949132.807      257133.3733      -3322.383          30.000  
G10  23655209.283      -62369.9892        312.339          36.000  
S33  36419364.327       42754.3522       -282.478          42.000  
G30  24083625.042      377446.395       -3592.967          36.000  
G13  20432949.500     -163561.257        1525.293          45.000  
S35  37742216.142       28898.0712       -271.272          43.000  
G11  25738148.050     -141481.3212       1675.137          33.000  
G16  21872145.493      337437.827       -3091.863          44.000  
> 2012  9 14 12 46 32.9990000  0 16                     
G 3  20706443.185      -46060.564         435.816          45.000  
G 8  25390152.527     -200215.0142       1878.005          34.000  
G19  21873212.539     -248962.024        2311.063          41.000  
S38  36689097.316       82799.9202       -266.580          45.000  
G20  23687654.490      294424.1312      -3238.600          36.000  
G 6  21655386.933       93572.084        -848.846          43.000  
G 7  22387816.546     -167800.794        1579.078          42.000  
G23  19842627.358      108014.348        -760.103          45.000  
G32  24949764.907      260454.0523      -3322.861          31.000  
G10  23655149.917      -62683.3982        312.834          36.000  
S33  36419417.795       43035.8482       -282.470          42.000  
G30  24084308.165      381039.387       -3593.418          37.000  
G13  20432659.844     -165087.239        1525.063          44.000  
S35  37742267.341       29168.2102       -270.898          43.000  
G11  25737829.321     -143156.9433       1677.310          33.000  
G16  21872734.822      340528.838       -3092.197          43.000  
> 2012  9 14 12 46 33.9990000  0 16                     
G 3  20706359.930      -46496.493         434.713          45.000  
G 8  25389794.483     -202094.4412       1877.814          33.000  
G19  21872773.440     -251272.825        2309.882          41.000  
S38  36689147.852       83066.0452       -266.542          45.000  
G20  23688271.495      297662.3232      -3239.037          36.000  
G 6  21655547.999       94420.802        -849.863          43.000  
G 7  22387515.897     -169380.418        1578.845          42.000  
G23  19842771.217      108774.286        -760.676          45.000  
G32  24950396.639      263774.8193      -3321.336          30.000  
G10  23655091.128      -62995.8672        312.014          35.000  
S33  36419471.699       43317.6232       -282.633          42.000  
G30  24084990.766      384632.711       -3594.436          37.000  
G13  20432370.449     -166612.392        1524.440          44.000  
S35  37742318.889       29438.7502       -270.833          43.000  
G11  25737510.960     -144832.6062       1675.344          32.000  
G16  21873323.819      343620.440       -3092.618          43.000  
> 2012  9 14 12 46 34.9990000  0 16                     
G 3  20706277.565      -46931.666         434.617          45.000  
G 8  25389436.649     -203973.7843       1879.717          33.000  
G19  21872334.235     -253583.156        2310.708          41.000  
S38  36689198.475       83332.1792       -266.485          45.000  
G20  23688888.535      300900.5712      -3238.052          37.000  
G 6  21655709.535       95270.237        -849.737          43.000  
G 7  22387215.125     -170959.911        1579.834          42.000  
G23  19842915.757      109534.906        -760.810          45.000  
G32  24951028.931      267095.5873      -3319.904          31.000  
G10  23655032.006      -63307.7082        312.479          35.000  
S33  36419525.341       43599.3422       -281.621          42.000  
G30  24085674.605      388226.122       -3594.064          38.000  
G13  20432080.427     -168137.005        1524.388          44.000  
S35  37742370.035       29709.3712       -270.919          43.000  
G11  25737191.778     -146508.5243       1674.369          32.000  
G16  21873911.787      346712.309       -3092.195          43.000  
> 2012  9 14 12 46 35.9990000  0 16                     
G 3  20706194.258      -47366.988         433.871          45.000  
G 8  25389078.728     -205854.1022       1878.955          32.000  
G19  21871894.141     -255893.945        2309.746          41.000  
S38  36689248.976       83597.3682       -266.152          45.000  
G20  23689504.999      304137.9422      -3240.031          37.000  
G 6  21655871.124       96119.503        -849.850          43.000  
G 7  22386914.981     -172540.204        1578.368          42.000  
G23  19843059.826      110295.312        -761.862          45.000  
G32  24951659.878      270415.3503      -3319.923          31.000  
G10  23654972.885      -63619.8002        310.537          35.000  
S33  36419579.523       43880.2532       -282.484          42.000  
G30  24086358.671      391818.703       -3593.633          37.000  
G13  20431790.317     -169661.976        1523.483          44.000  
S35  37742421.095       29979.1962       -271.403          43.000  
G11  25736873.206     -148185.4952       1674.539          31.000  
G16  21874500.173      349803.557       -3092.336          43.000  
> 2012  9 14 12 46 36.9990000  0 16                     
G 3  20706096.362      -47800.6383        435.167          44.000  
G 8  25388722.813     -207732.7283       1878.482          23.000  
G19  21871455.285     -258204.4573       2310.625          42.000  
S38  36689298.988       83862.7002       -265.165          44.000  
G20  23690120.206      307375.3802      -3236.739          41.000  
G 6  21656030.550       96969.383        -849.480          47.000  
G 7  22386611.591     -174120.402        1581.316          47.000  
G23  19843183.008      111056.3893       -760.665          43.000  
G32  24952291.384      273735.0473      -3318.880          30.000  
G10  23654914.374      -63931.3783        311.849          37.000  
S33  36419633.043       44161.3172       -280.376          42.000  
G30  24087039.700      395411.385       -3591.263          40.000  
G13  20431499.840     -171186.561        1524.939          47.000  
S35  37742471.997       30249.0012       -269.300          42.000  
G11  25736553.466     -149862.9363       1676.004          31.000  
G16  21875090.270      352895.4223      -3091.093          44.000  
> 2012  9 14 12 46 37.9990000  0 16                     
G 3  20706013.369      -48234.6173        433.461          44.000  
G 8  25388367.858     -209603.0143       1867.633          19.000  
G19  21871016.220     -260514.3952       2309.336          42.000  
S38  36689349.454       84128.0382       -264.897          44.000  
G20  23690735.693      310612.8182      -3237.713          41.000  
G 6  21656191.563       97819.959        -850.928          47.000  
G 7  22386310.296     -175700.547        1580.408          47.000  
G23  19843326.431      111818.2643       -762.044          43.000  
G32  24952922.384      277054.5103      -3318.582          30.000  
G10  23654856.370      -64242.2552        309.755          37.000  
S33  36419685.691       44442.5272       -280.338          41.000  
G30  24087720.782      399003.979       -3593.149          40.000  
G13  20431209.731     -172710.549        1523.796          47.000  
S35  37742523.685       30518.9132       -270.517          42.000  
G11  25736233.743     -151540.4562       1677.393          31.000  
G16  21875679.389      355987.1542      -3092.142          44.000  
> 2012  9 14 12 46 38.9990000  0 16                     
G 3  20705930.410      -48668.2343        433.448          44.000  
G 8  25388011.385     -211470.6383       1867.633          10.000  
G19  21870577.836     -262824.1552       2309.264          42.000  
S38  36689399.345       84393.1152       -265.138          43.000  
G20  23691350.429      313850.0322      -3237.141          40.000  
G 6  21656353.187       98670.943        -851.232          46.000  
G 7  22386009.664     -177280.873        1579.812          46.000  
G23  19843471.687      112580.3762       -762.215          43.000  
G32  24953553.890      280373.6953      -3318.933          30.000  
G10  23654798.470      -64552.7932        308.724          37.000  
S33  36419738.687       44723.5762       -281.024          41.000  
G30  24088404.080      402596.403       -3592.483          40.000  
G13  20430920.319     -174234.290        1523.547          47.000  
S35  37742574.360       30788.5082       -270.316          42.000  
G11  25735914.561     -153218.6373       1680.025          31.000  
G16  21876268.387      359078.8952      -3091.793          43.000  
> 2012  9 14 12 46 39.9990000  0 16                     
G 3  20705849.721      -49101.1952        434.000          44.000  
G 8  25387652.521     -213345.7563       1876.425           8.000  
G19  21870138.020     -265133.7632       2310.659          42.000  
S38  36689450.003       84657.9882       -263.557          43.000  
G20  23691965.881      317087.0142      -3235.313          40.000  
G 6  21656515.788       99522.332        -850.025          47.000  
G 7  22385708.822     -178861.402        1582.335          46.000  
G23  19843618.705      113342.8852       -761.121          43.000  
G32  24954185.954      283692.4263      -3316.352          29.000  
G10  23654741.111      -64862.9362        311.028          37.000  
S33  36419792.067       45004.2732       -278.845          41.000  
G30  24089086.175      406188.551       -3590.589          40.000  
G13  20430630.820     -175757.802        1524.883          47.000  
S35  37742625.542       31057.8112       -267.641          42.000  
G11  25735594.489     -154897.4123       1679.816          31.000  
G16  21876856.686      362170.6062      -3090.085          43.000  
> 2012  9 14 12 46 40.9990000  0 16                     
G 3  20705765.663      -49533.8462        433.993          44.000  
G 8  25387297.479     -215222.5923       1877.303           8.000  
G19  21869698.746     -267443.3622       2310.973          42.000  
S38  36689500.364       84922.5222       -262.424          43.000  
G20  23692581.490      320323.5972      -3234.781          40.000  
G 6  21656678.057      100373.971        -850.532          46.000  
G 7  22385407.771     -180442.272        1582.360          46.000  
G23  19843765.688      114105.6322       -762.014          43.000  
G32  24954817.495      287010.7593      -3314.348          29.000  
G10  23654682.112      -65172.8972        311.188          37.000  
S33  36419845.168       45284.4882       -279.258          41.000  
G30  24089768.757      409780.311       -3590.162          39.000  
G13  20430340.500     -177281.214        1524.912          47.000  
S35  37742676.741       31326.7002       -266.747          42.000  
G11  25735274.452     -156576.8673       1679.293          31.000  
G16  21877445.142      365262.1552      -3090.114          43.000  
> 2012  9 14 12 46 41.9990000  0 16                     
G 3  20705685.793      -49966.1612        433.245          44.000  
G 8  25386938.685     -217100.3093       1878.182           8.000  
G19  21869259.193     -269752.9202       2310.937          42.000  
S38  36689550.586       85186.5802       -262.363          43.000  
G20  23693196.871      323559.8062      -3234.913          40.000  
G 6  21656839.821      101225.898        -850.553          46.000  
G 7  22385106.685     -182023.441        1582.484          46.000  
G23  19843910.420      114868.6462       -762.398          43.000  
G32  24955448.704      290328.4993      -3313.358          29.000  
G10  23654623.758      -65482.6342        310.203          37.000  
S33  36419898.583       45564.5682       -278.195          41.000  
G30  24090451.323      413371.728       -3589.476          39.000  
G13  20430050.670     -178804.530        1524.559          47.000  
S35  37742727.207       31595.1252       -267.345          42.000  
G11  25734954.311     -158256.9373       1683.089          31.000  
G16  21878033.249      368353.5592      -3090.127          43.000  
> 2012  9 14 12 46 42.9990000  0 15                     
G 3  20705601.317      -50397.2352        432.779          44.000  
G19  21868822.204     -272061.5472       2310.428          42.000  
S38  36689600.738       85451.1082       -263.361          43.000  
G20  23693812.829      326796.574       -3235.333          40.000  
G 6  21657002.003      102079.029        -851.450          46.000  
G 7  22384806.419     -183604.035        1582.139          46.000  
G23  19844056.548      115632.8352       -763.533          43.000  
G32  24956080.367      293646.6843      -3317.289          29.000  
G10  23654564.724      -65791.2372        310.607          37.000  
S33  36419952.592       45845.3212       -278.754          41.000  
G30  24091134.272      416963.691       -3590.033          39.000  
G13  20429760.734     -180326.826        1523.475          47.000  
S35  37742778.248       31864.0672       -267.283          42.000  
G11  25734634.274     -159936.8653       1679.533          31.000  
G16  21878621.758      371445.7202      -3090.476          43.000  
> 2012  9 14 12 46 43.9990000  0 15                     
G 3  20705519.755      -50827.6952        430.118          44.000  
G19  21868383.436     -274369.8422       2307.725          42.000  
S38  36689650.959       85715.5702       -265.423          43.000  
G20  23694428.525      330033.260       -3237.083          40.000  
G 6  21657164.273      102932.712        -854.318          46.000  
G 7  22384506.223     -185184.638        1580.304          46.000  
G23  19844202.449      116397.5822       -765.119          43.000  
G32  24956710.861      296964.6983      -3317.180          29.000  
G10  23654505.795      -66099.3432        306.767          37.000  
S33  36420005.448       46125.8422       -280.499          41.000  
G30  24091818.076      420555.578       -3592.064          39.000  
G13  20429471.497     -181848.722        1521.728          47.000  
S35  37742830.494       32132.8112       -269.133          42.000  
G11  25734314.132     -161617.1882       1677.823          31.000  
G16  21879210.144      374538.0532      -3092.671          43.000  
> 2012  9 14 12 46 44.9990000  0 15                     
G 3  20705438.000      -51257.9352        429.201          44.000  
G19  21867945.418     -276678.2062       2306.900          42.000  
S38  36689701.774       85979.5692       -264.769          43.000  
G20  23695045.129      333269.466       -3237.414          40.000  
G 6  21657326.769      103786.589        -854.946          46.000  
G 7  22384205.730     -186765.657        1580.062          47.000  
G23  19844348.403      117162.4792       -766.216          43.000  
G32  24957342.035      300281.9753      -3317.983          29.000  
G10  23654445.504      -66407.2782        306.735          36.000  
S33  36420058.340       46405.8702       -280.816          41.000  
G30  24092501.252      424147.004       -3592.284          39.000  
G13  20429181.753     -183370.608        1520.862          47.000  
S35  37742881.275       32401.1872       -269.166          42.000  
G11  25733993.903     -163298.2223       1682.234          31.000  
G16  21879798.705      377630.1202      -3092.404          43.000  
> 2012  9 14 12 46 45.9990000  0 15                     
G 3  20705356.560      -51687.5072        428.400          44.000  
G19  21867505.969     -278986.2012       2307.096          42.000  
S38  36689751.647       86243.7672       -265.058          43.000  
G20  23695660.301      336505.617       -3236.968          41.000  
G 6  21657488.969      104641.067        -855.330          46.000  
G 7  22383904.469     -188346.678        1580.463          47.000  
G23  19844494.147      117927.9603       -766.568          43.000  
G32  24957973.088      303599.2023      -3318.498          29.000  
G10  23654384.865      -66714.7312        306.478          36.000  
S33  36420111.720       46685.8242       -280.544          41.000  
G30  24093184.533      427738.406       -3591.543          39.000  
G13  20428892.062     -184892.064        1520.246          47.000  
S35  37742931.775       32669.6572       -269.040          42.000  
G11  25733673.569     -164979.7093       1680.337          31.000  
G16  21880387.284      380722.3782      -3092.915          43.000  
> 2012  9 14 12 46 46.9990000  0 15                     
G 3  20705274.876      -52116.2622        428.617          44.000  
G19  21867066.869     -281293.6722       2307.793          42.000  
S38  36689801.363       86508.2572       -263.703          43.000  
G20  23696276.015      339741.890       -3236.227          41.000  
G 6  21657651.937      105496.303        -855.717          46.000  
G 7  22383603.715     -189927.548        1580.626          47.000  
G23  19844639.647      118694.2002       -766.493          43.000  
G32  24958604.611      306916.3003      -3318.605          29.000  
G10  23654325.063      -67021.4402        306.463          36.000  
S33  36420164.839       46965.8802       -279.496          41.000  
G30  24093867.464      431329.918       -3591.801          39.000  
G13  20428602.214     -186412.930        1520.977          47.000  
S35  37742983.812       32938.4002       -268.979          42.000  
G11  25733354.213     -166661.2643       1682.720          31.000  
G16  21880975.810      383814.9662      -3092.687          43.000  
> 2012  9 14 12 46 47.9990000  0 15                     
G 3  20705193.418      -52544.7992        428.206          44.000  
G19  21866626.827     -283601.2132       2307.211          42.000  
S38  36689851.532       86772.1352       -265.062          43.000  
G20  23696891.362      342977.713       -3236.742          41.000  
G 6  21657815.166      106351.735        -855.903          46.000  
G 7  22383302.681     -191508.807        1580.994          47.000  
G23  19844785.077      119460.6102       -766.966          43.000  
G32  24959235.698      310232.8733      -3317.080          29.000  
G10  23654266.378      -67328.0452        305.522          36.000  
S33  36420217.940       47245.4472       -279.248          41.000  
G30  24094551.199      434920.971       -3591.115          39.000  
G13  20428313.169     -187933.781        1520.331          47.000  
S35  37743034.749       33206.7522       -268.859          42.000  
G11  25733034.473     -168343.6733       1681.983          30.000  
G16  21881564.475      386907.3122      -3092.752          43.000  
> 2012  9 14 12 46 48.9990000  0 15                     
G 3  20705112.170      -52973.2892        427.028          44.000  
G19  21866187.239     -285909.041        2306.810          42.000  
S38  36689901.771       87035.2292       -263.352          43.000  
G20  23697505.941      346212.845       -3236.062          41.000  
G 6  21657978.465      107207.123        -856.624          46.000  
G 7  22383001.682     -193090.719        1581.145          47.000  
G23  19844930.612      120226.9712       -767.733          43.000  
G32  24959866.157      313548.6603      -3317.738          29.000  
G10  23654207.326      -67634.721         306.276          36.000  
S33  36420270.866       47524.3402       -279.708          41.000  
G30  24095234.724      438511.352       -3590.494          39.000  
G13  20428023.635     -189454.842        1519.510          47.000  
S35  37743085.494       33474.6212       -268.842          42.000  
G11  25732713.842     -170027.0473       1683.313          30.000  
G16  21882152.478      389998.712       -3093.101          43.000  
> 2012  9 14 12 46 49.9990000  0 15                     
G 3  20705030.555      -53401.1492        426.744          44.000  
G19  21865747.266     -288216.489        2306.566          42.000  
S38  36689951.696       87298.2782       -263.407          43.000  
G20  23698121.585      349447.931       -3235.683          41.000  
G 6  21658140.595      108063.113        -857.230          47.000  
G 7  22382700.526     -194672.601        1581.347          47.000  
G23  19845076.269      120993.9102       -768.626          43.000  
G32  24960497.139      316864.1993      -3315.617          30.000  
G10  23654149.008      -67940.881         304.570          36.000  
S33  36420324.316       47803.4002       -279.957          41.000  
G30  24095918.162      442101.677       -3590.689          40.000  
G13  20427733.857     -190975.454        1519.640          47.000  
S35  37743136.118       33742.5142       -267.971          42.000  
G11  25732393.683     -171710.8933       1683.500          30.000  
G16  21882740.707      393090.788       -3093.027          43.000  
> 2012  9 14 12 46 50.9990000  0 15                     
G 3  20704948.591      -53827.9792        425.917          44.000  
G19  21865307.887     -290523.216        2306.166          42.000  
S38  36690002.127       87561.6562       -263.778          43.000  
G20  23698737.752      352683.335       -3235.330          41.000  
G 6  21658303.266      108920.072        -857.184          47.000  
G 7  22382398.882     -196254.110        1581.469          47.000  
G23  19845221.594      121761.8252       -768.417          43.000  
G32  24961128.558      320180.0003      -3315.492          30.000  
G10  23654090.759      -68246.113         304.996          36.000  
S33  36420377.295       48082.6612       -278.844          41.000  
G30  24096601.774      445692.343       -3590.581          40.000  
G13  20427444.654     -192495.285        1518.974          47.000  
S35  37743186.653       34010.6992       -268.839          42.000  
G11  25732073.245     -173394.6752       1682.585          30.000  
G16  21883328.972      396183.396       -3093.162          43.000  
> 2012  9 14 12 46 51.9990000  0 15                     
G 3  20704867.588      -54254.2512        426.018          44.000  
G19  21864868.229     -292829.685        2306.315          42.000  
S38  36690052.681       87824.9642       -263.326          43.000  
G20  23699353.884      355918.601       -3235.765          41.000  
G 6  21658466.949      109777.543        -858.001          47.000  
G 7  22382097.918     -197835.734        1581.285          47.000  
G23  19845367.182      122530.2022       -768.958          43.000  
G32  24961759.733      323495.4843      -3317.382          30.000  
G10  23654032.772      -68550.910         304.716          36.000  
S33  36420430.728       48361.6972       -278.456          41.000  
G30  24097284.898      449282.898       -3591.513          39.000  
G13  20427155.172     -194014.777        1519.251          47.000  
S35  37743237.940       34278.6792       -268.780          42.000  
G11  25731752.981     -175078.9183       1680.719          31.000  
G16  21883917.550      399276.095       -3092.871          43.000  
> 2012  9 14 12 46 52.9990000  0 15                     
G 3  20704785.990      -54680.1752        424.992          43.000  
G19  21864428.745     -295136.100        2305.846          42.000  
S38  36690102.885       88087.9882       -263.377          43.000  
G20  23699969.999      359153.504       -3235.640          41.000  
G 6  21658630.632      110635.304        -858.583          47.000  
G 7  22381796.815     -199417.642        1581.462          47.000  
G23  19845512.647      123298.8822       -769.350          43.000  
G32  24962390.732      326810.4603      -3315.991          29.000  
G10  23653975.308      -68855.464         304.069          36.000  
S33  36420483.951       48640.5442       -279.176          41.000  
G30  24097968.353      452873.083       -3591.202          39.000  
G13  20426866.371     -195534.131        1518.671          47.000  
S35  37743289.104       34546.2862       -268.303          42.000  
G11  25731432.386     -176763.8243       1684.916          30.000  
G16  21884506.408      402368.670       -3093.605          43.000  
> 2012  9 14 12 46 53.9990000  0 15                     
G 3  20704704.445      -55105.5792        424.604          43.000  
G19  21863989.750     -297442.298        2305.415          42.000  
S38  36690153.002       88350.8272       -264.055          43.000  
G20  23700586.236      362388.221       -3235.789          41.000  
G 6  21658793.774      111493.525        -859.525          47.000  
G 7  22381495.781     -200999.688        1581.154          47.000  
G23  19845659.420      124068.0052       -770.439          43.000  
G32  24963021.296      330125.0433      -3318.654          30.000  
G10  23653917.426      -69159.608         302.818          36.000  
S33  36420537.017       48919.3562       -279.138          41.000  
G30  24098652.052      456463.096       -3591.400          40.000  
G13  20426577.605     -197053.199        1517.995          47.000  
S35  37743339.831       34813.6422       -268.400          42.000  
G11  25731111.005     -178449.1623       1684.139          30.000  
G16  21885094.899      405461.278       -3093.330          43.000  
> 2012  9 14 12 46 54.9990000  0 15                     
G 3  20704623.058      -55530.2202        423.808          43.000  
G19  21863551.506     -299748.026        2305.210          42.000  
S38  36690202.840       88613.7872       -263.049          43.000  
G20  23701201.775      365623.030       -3234.571          41.000  
G 6  21658957.562      112352.481        -859.359          47.000  
G 7  22381195.218     -202581.597        1581.499          47.000  
G23  19845806.770      124837.8412       -770.496          43.000  
G32  24963652.139      333439.7213      -3316.181          30.000  
G10  23653859.910      -69463.094         302.042          36.000  
S33  36420589.978       49198.2822       -279.404          41.000  
G30  24099335.787      460053.193       -3590.555          40.000  
G13  20426288.647     -198571.718        1517.314          47.000  
S35  37743390.053       35081.1252       -267.341          42.000  
G11  25730790.567     -180134.7813       1685.416          29.000  
G16  21885683.023      408554.203       -3093.307          43.000  
> 2012  9 14 12 46 55.9990000  0 15                     
G 3  20704542.263      -55954.1222        423.532          43.000  
G19  21863112.353     -302053.316        2304.725          42.000  
S38  36690252.835       88876.9042       -262.727          43.000  
G20  23701817.698      368857.872       -3233.998          41.000  
G 6  21659120.721      113212.115        -859.921          47.000  
G 7  22380894.167     -204163.436        1581.920          47.000  
G23  19845953.491      125608.3362       -771.347          43.000  
G32  24964283.086      336754.2283      -3314.970          29.000  
G10  23653802.656      -69765.945         302.652          37.000  
S33  36420642.521       49477.3052       -279.224          41.000  
G30  24100018.666      463643.327       -3590.832          40.000  
G13  20425999.706     -200089.718        1517.933          47.000  
S35  37743441.095       35348.7282       -267.977          42.000  
G11  25730470.338     -181820.6463       1686.001          29.000  
G16  21886271.323      411647.361       -3093.652          43.000  
> 2012  9 14 12 46 56.9990000  0 15                     
G 3  20704461.556      -56377.6122        424.947          43.000  
G19  21862673.480     -304358.482        2306.839          42.000  
S38  36690302.655       89139.9792       -260.956          43.000  
G20  23702432.609      372092.425       -3232.576          41.000  
G 6  21659284.370      114072.132        -858.236          47.000  
G 7  22380593.029     -205745.497        1584.089          47.000  
G23  19846100.527      126379.1712       -768.701          43.000  
G32  24964913.877      340068.3983      -3309.436          29.000  
G10  23653745.733      -70068.463         306.227          37.000  
S33  36420695.552       49755.9652       -276.262          41.000  
G30  24100702.034      467233.172       -3587.375          40.000  
G13  20425711.673     -201607.522        1520.062          47.000  
S35  37743491.735       35616.0842       -265.494          42.000  
G11  25730147.509     -183507.0713       1687.374          29.000  
G16  21886858.575      414740.477       -3091.111          43.000  
> 2012  9 14 12 46 57.9990000  0 15                     
G 3  20704381.704      -56800.6242        422.420          43.000  
G19  21862234.293     -306663.482        2304.797          42.000  
S38  36690352.912       89402.7742       -262.413          43.000  
G20  23703047.066      375326.748       -3234.442          41.000  
G 6  21659447.564      114932.553        -860.924          47.000  
G 7  22380291.908     -207327.738        1582.846          47.000  
G23  19846247.423      127150.4462       -770.636          43.000  
G32  24965544.423      343382.1113      -3312.961          30.000  
G10  23653688.270      -70370.695         302.733          37.000  
S33  36420748.269       50034.4232       -278.220          41.000  
G30  24101385.455      470822.830       -3589.261          40.000  
G13  20425421.999     -203125.088        1517.456          47.000  
S35  37743542.568       35883.1852       -266.524          42.000  
G11  25729827.925     -185194.1283       1687.318          28.000  
G16  21887446.577      417833.588       -3093.217          43.000  
> 2012  9 14 12 46 58.9990000  0 15                     
G 3  20704301.433      -57222.9492        421.341          43.000  
G19  21861795.822     -308968.088        2303.921          42.000  
S38  36690402.017       89665.3392       -263.792          43.000  
G20  23703662.674      378561.065       -3234.574          41.000  
G 6  21659610.985      115793.602        -861.676          47.000  
G 7  22379990.961     -208909.951        1581.433          47.000  
G23  19846394.109      127922.2842       -773.085          43.000  
G32  24966174.498      346695.6543      -3313.864          29.000  
G10  23653631.940      -70672.297         300.020          37.000  
S33  36420801.353       50312.8802       -279.017          41.000  
G30  24102068.194      474412.437       -3589.447          40.000  
G13  20425133.408     -204642.196        1516.319          47.000  
S35  37743593.523       36150.1312       -268.000          42.000  
G11  25729506.824     -186881.5643       1688.314          28.000  
G16  21888035.260      420926.892       -3093.988          43.000  
> 2012  9 14 12 46 59.9990000  0 15                     
G 3  20704221.476      -57644.4332        420.652          43.000  
G19  21861357.245     -311272.127        2303.898          42.000  
S38  36690451.226       89927.9912       -262.893          43.000  
G20  23704277.498      381795.501       -3235.046          41.000  
G 6  21659775.331      116655.426        -862.718          47.000  
G 7  22379690.451     -210491.957        1581.553          47.000  
G23  19846541.372      128694.9182       -773.897          43.000  
G32  24966805.149      350009.2333      -3312.096          29.000  
G10  23653575.157      -70973.194         298.236          37.000  
S33  36420854.489       50591.4582       -278.954          41.000  
G30  24102750.899      478002.226       -3590.730          39.000  
G13  20424844.973     -206158.670        1515.759          47.000  
S35  37743644.547       36417.2172       -267.412          42.000  
G11  25729184.798     -188569.1593       1687.776          28.000  
G16  21888623.106      424020.571       -3094.286          43.000  
> 2012  9 14 12 47  0.9990000  0 15                     
G 3  20704141.048      -58065.369         420.154          43.000  
G19  21860918.285     -313575.427        2303.078          42.000  
S38  36690501.483       90191.0262       -263.474          43.000  
G20  23704891.903      385030.313       -3235.335          41.000  
G 6  21659939.468      117518.256        -863.309          47.000  
G 7  22379388.719     -212073.590        1581.269          47.000  
G23  19846688.495      129468.559        -773.816          43.000  
G32  24967435.189      353323.0083      -3316.342          29.000  
G10  23653518.514      -71273.146         299.213          37.000  
S33  36420907.258       50870.3902       -279.255          41.000  
G30  24103434.162      481592.354       -3591.352          39.000  
G13  20424555.526     -207674.323        1515.374          47.000  
S35  37743695.100       36684.6542       -268.139          42.000  
G11  25728862.003     -190256.6643       1688.477          28.000  
G16  21889212.103      427114.810       -3094.772          42.000  
> 2012  9 14 12 47  1.9990000  0 15                     
G 3  20704060.864      -58486.223         420.457          43.000  
G19  21860479.517     -315879.461        2303.810          42.000  
S38  36690551.338       90452.9882       -261.911          43.000  
G20  23705506.430      388263.974       -3233.306          41.000  
G 6  21660103.814      118380.615        -862.622          47.000  
G 7  22379087.668     -213656.277        1582.640          47.000  
G23  19846835.391      130241.684        -773.261          43.000  
G32  24968065.055      356635.5643      -3312.492          30.000  
G10  23653461.696      -71573.614         299.727          37.000  
S33  36420959.923       51148.0992       -277.748          41.000  
G30  24104116.396      485181.374       -3589.288          39.000  
G13  20424266.935     -209190.635        1515.896          47.000  
S35  37743745.182       36950.9832       -266.065          42.000  
G11  25728541.757     -191945.6583       1688.802          28.000  
G16  21889800.769      430208.152       -3093.719          42.000  
> 2012  9 14 12 47  2.9990000  0 15                     
G 3  20703981.256      -58907.188         419.701          44.000  
G19  21860040.347     -318183.876        2303.417          42.000  
S38  36690600.530       90714.1252       -260.934          43.000  
G20  23706121.497      391496.847       -3233.622          41.000  
G 6  21660267.724      119242.829        -862.552          47.000  
G 7  22378786.390     -215239.717        1583.267          47.000  
G23  19846982.583      131014.659        -773.667          43.000  
G32  24968694.100      359947.1673      -3310.810          30.000  
G10  23653404.721      -71874.3443        300.049          37.000  
S33  36421013.373       51424.9542       -277.087          41.000  
G30  24104798.735      488769.606       -3588.188          39.000  
G13  20423977.366     -210707.252        1516.051          47.000  
S35  37743795.823       37216.4582       -265.388          42.000  
G11  25728217.654     -193635.7543       1689.976          28.000  
G16  21890389.190      433300.927       -3093.119          42.000  
> 2012  9 14 12 47  3.9990000  0 15                     
G 3  20703901.456      -59327.913         420.417          44.000  
G19  21859601.928     -320488.366        2303.703          42.000  
S38  36690650.822       90974.7342       -261.323          43.000  
G20  23706736.565      394729.232       -3232.380          41.000  
G 6  21660431.844      120105.199        -862.971          47.000  
G 7  22378485.165     -216823.601        1583.389          47.000  
G23  19847129.182      131787.758        -773.400          43.000  
G32  24969323.617      363258.1283      -3310.646          30.000  
G10  23653347.781      -72174.9302        299.740          37.000  
S33  36421065.427       51701.3372       -277.072          41.000  
G30  24105481.125      492357.330       -3588.045          39.000  
G13  20423689.367     -212223.892        1515.745          47.000  
S35  37743846.202       37481.4152       -265.214          42.000  
G11  25727896.570     -195326.6543       1691.057          28.000  
G16  21890977.123      436393.423       -3092.689          43.000  
> 2012  9 14 12 47  4.9990000  0 15                     
G 3  20703821.936      -59747.796         418.720          44.000  
G19  21859164.189     -322792.301        2302.738          42.000  
S38  36690700.258       91235.7062       -262.149          43.000  
G20  23707352.331      397961.785       -3232.688          41.000  
G 6  21660595.980      120968.386        -864.016          47.000  
G 7  22378183.206     -218407.269        1583.005          47.000  
G23  19847276.567      132561.664        -775.011          43.000  
G32  24969953.849      366569.0923      -3311.636          30.000  
G10  23653289.899      -72474.7682        298.463          37.000  
S33  36421117.027       51977.9432       -277.280          41.000  
G30  24106164.144      495945.231       -3588.847          39.000  
G13  20423400.618     -213739.885        1515.087          47.000  
S35  37743896.389       37746.6042       -265.577          42.000  
G11  25727576.917     -197017.7713       1690.876          28.000  
G16  21891565.911      439486.310       -3093.567          43.000  
> 2012  9 14 12 47  5.9990000  0 15                     
G 3  20703741.665      -60167.169         417.510          44.000  
G19  21858726.381     -325096.015        2302.613          42.000  
S38  36690749.800       91496.5962       -262.229          43.000  
G20  23707968.934      401194.118       -3233.466          41.000  
G 6  21660760.222      121832.018        -864.796          47.000  
G 7  22377881.544     -219991.083        1582.667          47.000  
G23  19847424.458      133336.017        -774.762          43.000  
G32  24970584.674      369879.8223      -3311.642          31.000  
G10  23653231.737      -72774.2012        298.446          37.000  
S33  36421170.076       52254.3942       -277.738          41.000  
G30  24106846.605      499532.963       -3587.927          39.000  
G13  20423112.795     -215255.591        1514.845          47.000  
S35  37743947.361       38011.6482       -266.033          42.000  
G11  25727254.943     -198709.3783       1690.510          28.000  
G16  21892154.489      442579.218       -3093.751          43.000  
> 2012  9 14 12 47  6.9990000  0 15                     
G 3  20703661.865      -60585.797         417.986          44.000  
G19  21858289.008     -327399.270        2302.189          42.000  
S38  36690799.358       91757.5342       -260.845          43.000  
G20  23708584.857      404426.523       -3232.290          41.000  
G 6  21660924.393      122696.373        -865.011          47.000  
G 7  22377579.638     -221574.782        1583.295          46.000  
G23  19847571.790      134111.046        -775.906          43.000  
G32  24971214.924      373190.3662      -3308.839          31.000  
G10  23653174.849      -73073.0092        297.995          37.000  
S33  36421222.409       52530.9732       -277.515          41.000  
G30  24107529.205      503120.751       -3588.660          39.000  
G13  20422823.610     -216770.791        1514.414          47.000  
S35  37743998.228       38276.7562       -264.780          42.000  
G11  25726930.840     -200401.1593       1691.700          28.000  
G16  21892742.439      445672.403       -3093.783          42.000  
> 2012  9 14 12 47  7.9990000  0 15                     
G 3  20703581.908      -61003.438         416.589          44.000  
G19  21857851.165     -329701.838        2301.512          42.000  
S38  36690849.301       92018.7242       -261.581          43.000  
G20  23709200.484      407659.223       -3232.845          41.000  
G 6  21661089.211      123561.644        -865.963          47.000  
G 7  22377277.801     -223158.163        1582.527          46.000  
G23  19847719.349      134887.002        -776.714          43.000  
G32  24971844.964      376501.0982      -3310.515          31.000  
G10  23653117.717      -73370.9112        297.268          36.000  
S33  36421274.533       52807.9112       -277.183          41.000  
G30  24108212.015      506708.836       -3587.405          39.000  
G13  20422535.210     -218285.200        1514.114          47.000  
S35  37744048.537       38542.1322       -265.219          42.000  
G11  25726607.557     -202092.9823       1692.500          29.000  
G16  21893330.424      448766.103       -3094.154          43.000  
> 2012  9 14 12 47  8.9990000  0 15                     
G 3  20703502.352      -61420.870         416.719          44.000  
G19  21857412.885     -332004.509        2301.794          42.000  
S38  36690898.685       92279.2522       -260.725          43.000  
G20  23709815.220      410891.385       -3232.464          41.000  
G 6  21661253.888      124427.067        -865.821          47.000  
G 7  22376975.790     -224741.980        1583.420          46.000  
G23  19847866.978      135663.072        -776.146          43.000  
G32  24972474.690      379811.2062      -3309.812          31.000  
G10  23653060.516      -73668.7852        296.650          37.000  
S33  36421327.494       53084.3382       -276.181          41.000  
G30  24108894.597      510296.380       -3587.699          39.000  
G13  20422247.421     -219799.652        1513.735          47.000  
S35  37744099.370       38807.0892       -265.605          42.000  
G11  25726286.229     -203785.6683       1692.950          29.000  
G16  21893919.125      451859.524       -3093.902          43.000  
> 2012  9 14 12 47  9.9990000  0 16                     
G 3  20703422.186      -61838.040         415.403          43.000  
G 8  25376844.869     -269793.1353       1888.221          10.000  
G19  21856974.239     -334307.177        2301.575          42.000  
S38  36690948.645       92539.3662       -261.527          43.000  
G20  23710430.619      414123.151       -3232.754          41.000  
G 6  21661418.531      125292.714        -867.021          47.000  
G 7  22376674.129     -226326.170        1582.879          46.000  
G23  19848014.746      136439.375        -777.470          43.000  
G32  24973104.782      383120.7893      -3309.615          31.000  
G10  23653003.418      -73966.4202        294.892          37.000  
S33  36421380.334       53360.3342       -277.129          41.000  
G30  24109577.634      513883.545       -3588.660          39.000  
G13  20421958.864     -221314.018        1513.141          47.000  
S35  37744149.033       39071.7022       -266.373          42.000  
G11  25725961.725     -205479.1033       1692.207          29.000  
G16  21894508.017      454952.745       -3094.553          43.000  
> 2012  9 14 12 47 10.9990000  0 16                     
G 3  20703342.770      -62254.301         415.815          43.000  
G 8  25376482.410     -271681.5583       1888.660          10.000  
G19  21856535.907     -336609.257        2300.723          42.000  
S38  36690997.662       92799.6352       -260.540          43.000  
G20  23711045.670      417355.107       -3232.452          41.000  
G 6  21661583.680      126159.198        -867.555          47.000  
G 7  22376372.711     -227910.118        1582.880          46.000  
G23  19848162.113      137216.498        -778.548          43.000  
G32  24973734.857      386430.4102      -3309.000          31.000  
G10  23652947.107      -74263.3542        294.805          37.000  
S33  36421432.789       53636.5452       -277.112          41.000  
G30  24110260.391      517470.900       -3588.023          39.000  
G13  20421670.569     -222827.736        1512.629          47.000  
S35  37744199.307       39336.6202       -265.827          42.000  
G11  25725638.966     -207172.5493       1694.072          29.000  
G16  21895096.299      458046.402       -3094.696          43.000  
> 2012  9 14 12 47 11.9990000  0 16                     
G 3  20703263.406      -62669.307         413.577          43.000  
G 8  25376122.080     -273570.4203       1889.100          10.000  
G19  21856096.982     -338910.363        2300.274          42.000  
S38  36691047.047       93060.4342       -261.167          43.000  
G20  23711660.092      420587.616       -3233.037          41.000  
G 6  21661748.532      127026.913        -868.355          47.000  
G 7  22376071.224     -229493.441        1582.559          46.000  
G23  19848310.056      137994.819        -778.985          43.000  
G32  24974364.601      389740.4232      -3311.451          30.000  
G10  23652890.236      -74559.0152        295.746          37.000  
S33  36421486.326       53913.3462       -276.591          41.000  
G30  24110943.358      521058.837       -3589.308          39.000  
G13  20421382.693     -224340.390        1512.249          47.000  
S35  37744249.598       39602.0872       -265.715          42.000  
G11  25725317.568     -208865.8413       1693.455          29.000  
G16  21895685.087      461140.834       -3095.163          43.000  
> 2012  9 14 12 47 12.9990000  0 15                     
G 3  20703184.479      -63084.052         414.531          43.000  
G19  21855658.842     -341211.506        2300.945          42.000  
S38  36691096.448       93320.7692       -260.317          43.000  
G20  23712275.317      423819.665       -3232.212          41.000  
G 6  21661913.123      127894.823        -868.801          47.000  
G 7  22375770.417     -231077.169        1583.503          46.000  
G23  19848457.947      138773.314        -778.945          43.000  
G32  24974994.501      393049.8653      -3308.106          31.000  
G10  23652834.047      -74854.619         294.684          37.000  
S33  36421539.113       54189.6682       -276.364          41.000  
G30  24111625.975      524646.340       -3588.056          39.000  
G13  20421095.183     -225853.026        1511.968          47.000  
S35  37744299.768       39867.1132       -265.849          42.000  
G11  25724996.990     -210559.7963       1695.370          29.000  
G16  21896273.910      464235.029       -3094.755          43.000  
> 2012  9 14 12 47 13.9990000  0 15                     
G 3  20703105.674      -63498.351         414.968          43.000  
G19  21855220.754     -343512.492        2300.078          42.000  
S38  36691146.077       93580.8842       -259.808          43.000  
G20  23712890.908      427051.497       -3231.942          41.000  
G 6  21662078.725      128763.143        -868.430          47.000  
G 7  22375469.854     -232661.083        1584.048          46.000  
G23  19848606.675      139552.221        -778.848          43.000  
G32  24975624.280      396358.8882      -3307.201          31.000  
G10  23652778.066      -75149.860         294.110          37.000  
S33  36421591.481       54466.0232       -276.261          41.000  
G30  24112308.959      528233.601       -3586.959          39.000  
G13  20420807.987     -227365.413        1512.038          47.000  
S35  37744350.077       40131.8792       -264.552          42.000  
G11  25724675.103     -212254.4013       1694.559          29.000  
G16  21896863.954      467329.220       -3093.848          43.000  
> 2012  9 14 12 47 14.9990000  0 15                     
G 3  20703026.694      -63912.489         413.149          43.000  
G19  21854782.946     -345813.614        2299.929          42.000  
S38  36691195.897       93840.6622       -261.428          43.000  
G20  23713506.482      430282.756       -3233.175          41.000  
G 6  21662243.577      129631.543        -869.304          46.000  
G 7  22375168.035     -234245.514        1583.752          46.000  
G23  19848754.967      140331.200        -779.693          43.000  
G32  24976253.674      399667.2933      -3309.288          31.000  
G10  23652721.074      -75445.059         293.953          37.000  
S33  36421643.779       54741.8402       -277.047          41.000  
G30  24112991.682      531820.301       -3587.969          39.000  
G13  20420520.774     -228877.876        1511.600          47.000  
S35  37744400.159       40396.1642       -265.405          42.000  
G11  25724353.146     -213949.8853       1695.292          29.000  
G16  21897453.021      470423.059       -3094.726          43.000  
> 2012  9 14 12 47 15.9990000  0 15                     
G 3  20702948.029      -64326.878         412.091          43.000  
G19  21854345.067     -348115.250        2300.062          42.000  
S38  36691244.600       94099.6432       -260.883          43.000  
G20  23714121.497      433513.097       -3231.510          41.000  
G 6  21662408.831      130499.654        -870.104          46.000  
G 7  22374865.989     -235830.813        1583.493          46.000  
G23  19848903.189      141109.870        -780.638          43.000  
G32  24976882.510      402974.6333      -3308.485          31.000  
G10  23652664.047      -75740.619         293.418          37.000  
S33  36421696.689       55016.6912       -276.577          41.000  
G30  24113673.584      535406.085       -3587.945          39.000  
G13  20420233.247     -230390.803        1511.047          47.000  
S35  37744450.363       40659.5762       -264.755          42.000  
G11  25724028.590     -215646.6193       1695.981          29.000  
G16  21898042.315      473516.184       -3094.926          43.000  
> 2012  9 14 12 47 16.9990000  0 15                     
G 3  20702869.049      -64739.483         411.771          43.000  
G19  21853907.800     -350415.423        2299.453          42.000  
S38  36691294.299       94359.7122       -260.529          43.000  
G20  23714736.705      436744.481       -3232.783          41.000  
G 6  21662573.526      131369.486        -870.777          46.000  
G 7  22374564.101     -237414.997        1583.438          46.000  
G23  19849051.272      141890.259        -780.970          43.000  
G32  24977511.887      406282.7863      -3308.487          31.000  
G10  23652607.752      -76034.454         293.137          37.000  
S33  36421749.074       55292.7012       -276.515          41.000  
G30  24114356.393      538992.951       -3587.503          39.000  
G13  20419945.667     -231902.169        1510.843          47.000  
S35  37744500.847       40924.0602       -265.173          42.000  
G11  25723706.843     -217342.5523       1695.414          29.000  
G16  21898630.178      476610.613       -3094.943          43.000  
> 2012  9 14 12 47 17.9990000  0 15                     
G 3  20702790.157      -65151.475         410.538          43.000  
G19  21853470.096     -352715.253        2299.186          42.000  
S38  36691343.665       94619.7572       -259.851          43.000  
G20  23715351.685      439975.780       -3232.341          41.000  
G 6  21662738.902      132239.890        -871.221          46.000  
G 7  22374262.840     -238999.217        1583.599          46.000  
G23  19849199.930      142671.188        -781.494          43.000  
G32  24978141.369      409590.8382      -3308.146          31.000  
G10  23652551.946      -76327.879         293.104          37.000  
S33  36421801.704       55568.7733       -276.903          41.000  
G30  24115038.976      542579.707       -3587.527          39.000  
G13  20419657.756     -233413.150        1510.159          47.000  
S35  37744551.243       41188.5152       -264.895          42.000  
G11  25723385.200     -219038.8863       1696.076          29.000  
G16  21899219.175      479705.176       -3095.095          43.000  
> 2012  9 14 12 47 18.9990000  0 15                     
G 3  20702711.962      -65562.483         409.887          43.000  
G19  21853032.863     -355014.388        2299.433          42.000  
S38  36691393.416       94880.2132       -260.303          43.000  
G20  23715966.718      443207.408       -3232.429          41.000  
G 6  21662904.958      133111.238        -871.859          46.000  
G 7  22373961.492     -240583.114        1583.490          46.000  
G23  19849348.833      143453.047        -782.270          43.000  
G32  24978770.833      412899.0152      -3307.328          31.000  
G10  23652496.716      -76620.369         291.330          37.000  
S33  36421853.688       55845.2522       -276.872          41.000  
G30  24115721.925      546166.765       -3587.550          39.000  
G13  20419370.089     -234923.353        1509.772          47.000  
S35  37744601.081       41453.3252       -265.173          42.000  
G11  25723061.115     -220735.2093       1695.740          29.000  
G16  21899808.224      482800.247       -3095.522          43.000  
> 2012  9 14 12 47 19.9990000  0 15                     
G 3  20702634.693      -65972.700         409.399          43.000  
G19  21852595.561     -357313.043        2298.127          42.000  
S38  36691442.626       95140.6422       -261.262          43.000  
G20  23716581.961      446439.082       -3232.281          41.000  
G 6  21663070.980      133983.317        -872.960          46.000  
G 7  22373660.110     -242166.848        1583.251          46.000  
G23  19849497.875      144235.618        -783.334          43.000  
G32  24979400.123      416207.1652      -3307.572          31.000  
G10  23652441.295      -76912.220         289.679          37.000  
S33  36421905.725       56121.7482       -277.067          41.000  
G30  24116404.508      549753.931       -3588.186          39.000  
G13  20419082.737     -236432.984        1508.977          47.000  
S35  37744651.512       41718.1002       -265.198          42.000  
G11  25722737.623     -222431.7813       1697.425          28.000  
G16  21900397.379      485895.628       -3096.434          43.000  
> 2012  9 14 12 47 20.9990000  0 15                     
G 3  20702556.463      -66382.569         408.974          43.000  
G19  21852158.258     -359611.639        2297.418          42.000  
S38  36691492.219       95400.6882       -260.691          43.000  
G20  23717196.330      449670.424       -3231.873          41.000  
G 6  21663237.018      134855.700        -873.231          47.000  
G 7  22373358.971     -243750.879        1583.710          46.000  
G23  19849647.127      145018.492        -783.748          43.000  
G32  24980029.814      419514.8103      -3308.831          31.000  
G10  23652386.100      -77203.8043        290.645          37.000  
S33  36421957.918       56397.6462       -275.785          41.000  
G30  24117086.829      553340.712       -3587.610          39.000  
G13  20418795.558     -237942.501        1508.692          47.000  
S35  37744701.786       41982.4552       -264.688          42.000  
G11  25722415.998     -224129.1013       1696.674          28.000  
G16  21900986.446      488990.873       -3095.791          43.000  
> 2012  9 14 12 47 21.9990000  0 15                     
G 3  20702478.775      -66791.933         408.354          43.000  
G19  21851720.816     -361910.028        2296.983          42.000  
S38  36691541.621       95660.5282       -260.769          43.000  
G20  23717809.461      452901.503       -3232.280          41.000  
G 6  21663403.127      135728.508        -874.162          47.000  
G 7  22373056.733     -245335.108        1582.967          46.000  
G23  19849795.907      145801.751        -784.450          43.000  
G32  24980659.645      422822.0333      -3309.255          31.000  
G10  23652331.376      -77495.0062        288.729          37.000  
S33  36422010.147       56673.3992       -276.662          41.000  
G30  24117769.359      556927.292       -3587.514          39.000  
G13  20418507.857     -239451.760        1508.020          47.000  
S35  37744752.426       42246.6632       -264.905          42.000  
G11  25722091.581     -225826.8653       1697.433          29.000  
G16  21901575.111      492086.118       -3096.415          43.000  
> 2012  9 14 12 47 22.9990000  0 15                     
G 3  20702401.505      -67199.994         407.231          43.000  
G19  21851282.903     -364207.425        2296.813          42.000  
S38  36691591.319       95921.0362       -260.916          43.000  
G20  23718423.587      456133.235       -3231.548          41.000  
G 6  21663569.637      136602.582        -874.775          47.000  
G 7  22372755.194     -246918.660        1583.101          46.000  
G23  19849945.107      146586.262        -784.946          43.000  
G32  24981289.371      426129.8333      -3308.921          31.000  
G10  23652276.809      -77785.0172        289.999          38.000  
S33  36422063.004       56949.8022       -276.061          41.000  
G30  24118451.488      560514.512       -3587.224          39.000  
G13  20418221.464     -240959.928        1507.658          47.000  
S35  37744802.613       42511.4902       -264.436          42.000  
G11  25721769.851     -227524.3173       1698.281          29.000  
G16  21902164.388      495182.200       -3096.759          43.000  
> 2012  9 14 12 47 23.9990000  0 15                     
G 3  20702323.834      -67607.626         407.300          43.000  
G19  21850845.688     -366504.660        2296.799          42.000  
S38  36691640.616       96181.3452       -260.521          43.000  
G20  23719037.939      459364.667       -3232.120          40.000  
G 6  21663735.990      137477.036        -874.766          46.000  
G 7  22372453.636     -248502.416        1583.541          46.000  
G23  19850094.742      147371.142        -785.367          43.000  
G32  24981918.119      429437.1583      -3309.366          31.000  
G10  23652221.544      -78074.7272        289.362          38.000  
S33  36422115.110       57225.9562       -276.294          41.000  
G30  24119134.088      564101.454       -3587.267          39.000  
G13  20417934.914     -242467.866        1507.505          47.000  
S35  37744852.852       42775.9702       -264.456          42.000  
G11  25721446.847     -229222.4083       1697.885          29.000  
G16  21902753.507      498278.224       -3096.472          43.000  
> 2012  9 14 12 47 24.9990000  0 15                     
G 3  20702245.640      -68015.057         408.151          43.000  
G19  21850408.542     -368802.027        2298.212          42.000  
S38  36691689.756       96441.0982       -258.885          43.000  
G20  23719652.326      462595.596       -3230.264          40.000  
G 6  21663902.325      138351.621        -873.795          46.000  
G 7  22372152.463     -250086.654        1585.052          46.000  
G23  19850244.744      148156.155        -784.054          43.000  
G32  24982547.130      432743.8732      -3304.408          31.000  
G10  23652166.925      -78364.3272        291.208          38.000  
S33  36422167.862       57501.4972       -273.757          41.000  
G30  24119816.148      567687.868       -3585.095          39.000  
G13  20417648.102     -243975.852        1508.907          47.000  
S35  37744902.935       43039.9332       -262.925          42.000  
G11  25721123.774     -230921.2303       1699.946          29.000  
G16  21903342.853      501373.974       -3094.637          43.000  
> 2012  9 14 12 47 25.9990000  0 15                     
G 3  20702167.829      -68422.351         407.334          43.000  
G19  21849971.118     -371099.512        2297.935          42.000  
S38  36691739.157       96700.2422       -258.780          43.000  
G20  23720266.260      465825.970       -3229.359          40.000  
G 6  21664068.207      139226.305        -874.645          47.000  
G 7  22371850.155     -251671.374        1584.892          46.000  
G23  19850393.298      148941.242        -785.306          43.000  
G32  24983175.896      436049.8773      -3306.456          31.000  
G10  23652111.957      -78653.9132        289.898          38.000  
S33  36422220.125       57776.4202       -274.379          41.000  
G30  24120498.312      571273.745       -3586.269          39.000  
G13  20417360.959     -245483.905        1507.699          47.000  
S35  37744952.720       43303.2582       -263.862          42.000  
G11  25720801.067     -232620.9683       1700.770          30.000  
G16  21903931.589      504469.391       -3094.917          43.000  
> 2012  9 14 12 47 26.9990000  0 15                     
G 3  20702090.857      -68828.293         405.717          43.000  
G19  21849534.042     -373395.956        2296.284          42.000  
S38  36691788.210       96959.9922       -259.530          43.000  
G20  23720880.734      469056.961       -3231.284          40.000  
G 6  21664234.717      140102.261        -876.289          47.000  
G 7  22371548.424     -253255.420        1583.835          46.000  
G23  19850542.375      149727.580        -786.757          43.000  
G32  24983805.413      439356.3542      -3305.343          30.000  
G10  23652057.512      -78942.2982        288.119          38.000  
S33  36422272.144       58052.0712       -275.695          41.000  
G30  24121180.737      574860.288       -3587.052          39.000  
G13  20417074.025     -246990.842        1506.760          47.000  
S35  37745003.570       43567.2912       -263.845          42.000  
G11  25720478.168     -234320.6943       1699.566          30.000  
G16  21904521.197      507565.649       -3096.472          44.000  
> 2012  9 14 12 47 27.9990000  0 15                     
G 3  20702012.976      -69233.702         404.781          43.000  
G19  21849097.368     -375692.148        2295.855          42.000  
S38  36691837.437       97219.5782       -259.207          43.000  
G20  23721495.767      472287.818       -3230.440          40.000  
G 6  21664401.332      140978.737        -876.882          47.000  
G 7  22371246.273     -254839.551        1584.156          46.000  
G23  19850691.854      150514.412        -787.542          43.000  
G32  24984434.947      442662.5783      -3305.919          31.000  
G10  23652002.526      -79230.1912        286.879          38.000  
S33  36422324.635       58327.5832       -275.725          41.000  
G30  24121863.861      578446.638       -3586.892          39.000  
G13  20416787.003     -248497.440        1505.749          47.000  
S35  37745053.547       43831.2752       -264.573          42.000  
G11  25720158.446     -236020.5212       1701.734          31.000  
G16  21905110.298      510661.986       -3096.896          43.000  
> 2012  9 14 12 47 28.9990000  0 15                     
G 3  20701936.440      -69638.189         404.113          43.000  
G19  21848660.746     -377987.741        2294.964          42.000  
S38  36691886.367       97479.5352       -259.502          43.000  
G20  23722110.364      475518.862       -3231.026          40.000  
G 6  21664568.540      141856.049        -877.616          47.000  
G 7  22370944.646     -256423.451        1584.089          46.000  
G23  19850841.594      151302.078        -787.985          43.000  
G32  24985064.516      445968.8852      -3308.156          31.000  
G10  23651948.658      -79517.3022        287.613          38.000  
S33  36422377.142       58603.2572       -275.881          41.000  
G30  24122546.583      582033.223       -3586.647          39.000  
G13  20416500.384     -250003.352        1505.921          47.000  
S35  37745103.734       44095.4402       -264.308          42.000  
G11  25719832.790     -237720.6053       1698.864          31.000  
G16  21905699.767      513758.738       -3096.865          43.000  
> 2012  9 14 12 47 29.9990000  0 15                     
G 3  20701859.868      -70042.607         403.399          43.000  
G19  21848224.124     -380283.5353       2294.312          42.000  
S38  36691936.257       97738.9812       -259.845          43.000  
G20  23722724.769      478749.297       -3231.755          40.000  
G 6  21664736.376      142733.385        -878.399          47.000  
G 7  22370642.810     -258007.907        1583.657          46.000  
G23  19850991.177      152089.757        -788.913          43.000  
G32  24985693.212      449274.4342      -3305.367          30.000  
G10  23651893.480      -79804.4562        286.336          37.000  
S33  36422429.441       58878.2942       -275.776          41.000  
G30  24123229.183      585619.177       -3586.404          39.000  
G13  20416214.148     -251509.407        1505.171          47.000  
S35  37745154.148       44359.0522       -264.495          42.000  
G11  25719511.165     -239421.5543       1698.391          31.000  
G16  21906289.130      516855.091       -3096.895          43.000  
> 2012  9 14 12 47 30.9990000  0 15                     
G 3  20701783.314      -70446.338         402.828          43.000  
G19  21847786.211     -382578.9402       2294.260          42.000  
S38  36691985.310       97998.3892       -259.248          43.000  
G20  23723339.732      481979.681       -3230.492          40.000  
G 6  21664904.003      143611.352        -879.022          47.000  
G 7  22370341.130     -259592.332        1584.180          46.000  
G23  19851141.511      152878.056        -789.262          43.000  
G32  24986321.315      452579.7742      -3306.291          30.000  
G10  23651838.616      -80091.024         285.629          37.000  
S33  36422481.547       59153.4172       -275.673          41.000  
G30  24123911.504      589205.124       -3586.167          39.000  
G13  20415926.533     -253015.019        1504.882          47.000  
S35  37745204.195       44622.7162       -263.958          42.000  
G11  25719182.333     -241122.8082       1702.151          32.000  
G16  21906878.407      519951.664       -3096.454          43.000  
> 2012  9 14 12 47 31.9990000  0 15                     
G 3  20701706.498      -70849.218         402.355          44.000  
G19  21847349.711     -384873.8032       2294.803          42.000  
S38  36692034.519       98257.8192       -260.113          43.000  
G20  23723954.468      485210.240       -3230.358          40.000  
G 6  21665071.507      144490.105        -879.174          47.000  
G 7  22370040.236     -261176.561        1584.059          46.000  
G23  19851291.408      153667.133        -789.391          43.000  
G32  24986949.541      455885.1462      -3306.577          30.000  
G10  23651783.840      -80376.877         285.697          37.000  
S33  36422534.072       59428.8602       -274.984          41.000  
G30  24124593.633      592791.237       -3585.957          39.000  
G13  20415640.001     -254519.996        1504.619          47.000  
S35  37745254.556       44886.6332       -264.606          42.000  
G11  25718861.161     -242824.3002       1702.015          32.000  
G16  21907467.666      523048.571       -3097.691          43.000  
> 2012  9 14 12 47 32.9990000  0 15                     
G 3  20701630.328      -71251.685         401.507          44.000  
G19  21846912.705     -387168.5042       2294.017          42.000  
S38  36692084.026       98516.9592       -259.761          43.000  
G20  23724569.885      488440.494       -3231.110          40.000  
G 6  21665238.663      145369.236        -879.992          47.000  
G 7  22369738.958     -262761.016        1583.819          46.000  
G23  19851442.178      154456.546        -790.649          43.000  
G32  24987578.412      459190.1663      -3306.573          30.000  
G10  23651728.977      -80662.414         285.825          37.000  
S33  36422586.632       59704.0772       -275.715          41.000  
G30  24125276.199      596377.045       -3586.024          39.000  
G13  20415353.119     -256024.778        1503.925          47.000  
S35  37745303.766       45150.3542       -263.815          42.000  
G11  25718536.326     -244526.3643       1702.222          33.000  
G16  21908056.471      526145.432       -3097.265          43.000  
> 2012  9 14 12 47 33.9990000  0 15                     
G 3  20701553.669      -71653.920         400.907          44.000  
G19  21846476.101     -389463.2972       2293.746          42.000  
S38  36692133.724       98775.5882       -259.958          43.000  
G20  23725184.028      491670.262       -3230.823          40.000  
G 6  21665405.051      146248.533        -880.369          47.000  
G 7  22369437.733     -264345.890        1584.021          46.000  
G23  19851592.721      155246.147        -790.576          43.000  
G32  24988207.143      462494.4953      -3304.929          30.000  
G10  23651674.497      -80947.828         284.443          37.000  
S33  36422638.931       59978.7532       -275.445          41.000  
G30  24125958.450      599962.404       -3586.348          39.000  
G13  20415065.854     -257529.545        1503.675          47.000  
S35  37745353.988       45413.6422       -264.116          42.000  
G11  25718212.642     -246229.1592       1701.038          33.000  
G16  21908646.498      529242.053       -3097.860          43.000  
> 2012  9 14 12 47 34.9990000  0 15                     
G 3  20701476.766      -72055.444         401.083          44.000  
G19  21846039.636     -391757.6692       2293.712          42.000  
S38  36692182.986       99034.2042       -258.744          43.000  
G20  23725798.241      494900.045       -3230.178          40.000  
G 6  21665572.172      147128.481        -880.646          47.000  
G 7  22369136.141     -265930.716        1584.446          46.000  
G23  19851743.194      156036.360        -790.573          44.000  
G32  24988835.578      465798.6803      -3304.798          30.000  
G10  23651619.511      -81232.689         283.927          37.000  
S33  36422690.950       60253.2382       -274.218          41.000  
G30  24126640.614      603547.752       -3586.273          39.000  
G13  20414778.955     -259033.840        1503.672          47.000  
S35  37745403.791       45676.8332       -263.132          42.000  
G11  25717888.329     -247932.3413       1703.403          33.000  
G16  21909236.245      532338.888       -3097.154          43.000  
> 2012  9 14 12 47 35.9990000  0 15                     
G 3  20701400.299      -72455.977         399.076          44.000  
G19  21845604.026     -394051.3442       2293.062          43.000  
S38  36692232.038       99293.0552       -259.139          43.000  
G20  23726412.768      498130.117       -3230.885          40.000  
G 6  21665740.113      148009.374        -882.021          47.000  
G 7  22368834.461     -267515.204        1583.638          46.000  
G23  19851893.144      156827.509        -792.385          44.000  
G32  24989464.623      469103.0373      -3306.174          30.000  
G10  23651565.206      -81516.610         284.626          36.000  
S33  36422742.567       60528.0832       -275.386          41.000  
G30  24127322.970      607133.425       -3585.862          39.000  
G13  20414492.352     -260537.358        1502.626          46.000  
S35  37745453.751       45940.2842       -264.227          42.000  
G11  25717564.401     -249635.4923       1703.358          33.000  
G16  21909825.295      535436.231       -3098.428          42.000  
> 2012  9 14 12 47 36.9990000  0 15                     
G 3  20701324.059      -72855.956         399.198          44.000  
G19  21845168.015     -396344.761        2293.032          43.000  
S38  36692280.917       99551.6802       -259.168          43.000  
G20  23727026.963      501360.024       -3230.339          40.000  
G 6  21665907.408      148890.759        -881.978          47.000  
G 7  22368533.026     -269099.783        1585.082          46.000  
G23  19852043.827      157619.142        -792.418          44.000  
G32  24990093.162      472407.1443      -3303.823          30.000  
G10  23651510.430      -81800.154         283.122          37.000  
S33  36422794.709       60802.9982       -274.795          41.000  
G30  24128005.029      610718.942       -3585.428          39.000  
G13  20414205.854     -262040.552        1502.797          46.000  
S35  37745503.571       46203.4852       -263.351          42.000  
G11  25717239.478     -251339.1023       1702.937          33.000  
G16  21910413.646      538533.650       -3097.928          42.000  
> 2012  9 14 12 47 37.9990000  0 15                     
G 3  20701247.243      -73256.059         398.753          44.000  
G19  21844733.313     -398638.591        2292.376          43.000  
S38  36692329.341       99809.5462       -259.118          43.000  
G20  23727641.123      504589.123       -3230.080          40.000  
G 6  21666074.947      149771.967        -882.564          47.000  
G 7  22368231.539     -270685.156        1583.918          46.000  
G23  19852194.265      158410.570        -792.760          44.000  
G32  24990722.313      475710.2973      -3303.666          30.000  
G10  23651456.544      -82083.880         282.504          37.000  
S33  36422846.710       61077.1882       -276.129          41.000  
G30  24128686.756      614303.621       -3584.842          39.000  
G13  20413919.706     -263544.099        1501.860          46.000  
S35  37745553.898       46465.8432       -263.211          42.000  
G11  25716913.944     -253043.9222       1702.151          33.000  
G16  21911002.591      541630.449       -3098.144          42.000  
> 2012  9 14 12 47 38.9990000  0 15                     
G 3  20701171.370      -73655.466         397.747          44.000  
G19  21844296.988     -400931.998        2292.346          43.000  
S38  36692378.708      100067.5372       -258.717          43.000  
G20  23728255.511      507818.219       -3230.326          40.000  
G 6  21666242.260      150653.825        -883.359          47.000  
G 7  22367928.673     -272270.458        1584.481          46.000  
G23  19852345.593      159202.653        -793.397          44.000  
G32  24991351.777      479013.2743      -3302.044          31.000  
G10  23651402.448      -82367.081         280.971          36.000  
S33  36422899.358       61351.4872       -274.755          41.000  
G30  24129369.357      617888.328       -3585.630          39.000  
G13  20413633.016     -265047.135        1501.960          46.000  
S35  37745604.067       46728.3152       -263.451          42.000  
G11  25716589.806     -254748.9632       1703.289          33.000  
G16  21911591.239      544727.487       -3097.721          41.000  
> 2012  9 14 12 47 39.9990000  0 15                     
G 3  20701095.322      -74053.809         397.434          44.000  
G19  21843860.540     -403224.664        2291.487          43.000  
S38  36692428.022      100325.8412       -259.088          43.000  
G20  23728870.125      511047.640       -3230.457          39.000  
G 6  21666409.293      151536.687        -884.099          47.000  
G 7  22367626.191     -273855.368        1584.111          46.000  
G23  19852496.119      159995.708        -794.400          44.000  
G32  24991980.526      482316.4432      -3302.135          31.000  
G10  23651348.684      -82649.276         280.878          36.000  
S33  36422951.254       61626.1382       -275.702          41.000  
G30  24130051.224      621473.376       -3586.479          39.000  
G13  20413345.733     -266549.361        1501.125          45.000  
S35  37745653.486       46991.2312       -263.833          42.000  
G11  25716265.599     -256454.0022       1705.018          33.000  
G16  21912179.504      547825.107       -3098.446          41.000  
> 2012  9 14 12 47 40.9990000  0 15                     
G 3  20701019.937      -74451.319         396.947          44.000  
G19  21843424.407     -405516.751        2291.211          43.000  
S38  36692477.633      100584.3782       -259.538          43.000  
G20  23729484.896      514277.202       -3230.313          39.000  
G 6  21666577.287      152420.325        -884.435          47.000  
G 7  22367324.093     -275440.096        1584.179          46.000  
G23  19852647.447      160789.520        -795.170          45.000  
G32  24992609.746      485619.5773      -3304.855          31.000  
G10  23651296.386      -82930.775         281.195          36.000  
S33  36423003.797       61900.8622       -275.597          41.000  
G30  24130732.550      625058.566       -3585.375          39.000  
G13  20413059.585     -268050.963        1500.828          45.000  
S35  37745703.934       47254.3742       -263.522          42.000  
G11  25715941.025     -258159.2422       1705.133          33.000  
G16  21912768.431      550923.058       -3098.787          40.000  
> 2012  9 14 12 47 41.9990000  0 15                     
G 3  20700944.831      -74848.728         395.253          44.000  
G19  21842988.535     -407809.066        2290.631          43.000  
S38  36692525.795      100842.3012       -259.604          43.000  
G20  23730099.772      517506.144       -3231.466          40.000  
G 6  21666744.896      153304.008        -885.908          47.000  
G 7  22367021.698     -277025.374        1583.509          46.000  
G23  19852798.270      161583.372        -795.313          45.000  
G32  24993238.512      488922.0512      -3304.417          31.000  
G10  23651241.662      -83212.308         279.759          36.000  
S33  36423055.938       62175.0102       -275.700          41.000  
G30  24131414.365      628643.164       -3586.851          39.000  
G13  20412773.523     -269552.702        1499.987          45.000  
S35  37745753.196       47516.7672       -264.047          42.000  
G11  25715616.416     -259865.3162       1706.994          33.000  
G16  21913356.573      554020.625       -3099.550          40.000  
> 2012  9 14 12 47 42.9990000  0 15                     
G 3  20700868.783      -75245.175         394.553          44.000  
G19  21842551.181     -410100.691        2290.051          43.000  
S38  36692574.482      101100.6102       -259.547          43.000  
G20  23730714.281      520735.364       -3230.247          40.000  
G 6  21666912.558      154188.610        -886.615          47.000  
G 7  22366719.931     -278610.335        1583.691          46.000  
G23  19852949.458      162378.120        -796.322          45.000  
G32  24993867.767      492224.6292      -3304.022          31.000  
G10  23651188.229      -83492.953         278.164          36.000  
S33  36423108.533       62449.3382       -275.989          41.000  
G30  24132095.953      632228.005       -3587.197          39.000  
G13  20412486.362     -271053.688        1499.220          45.000  
S35  37745802.964       47779.4342       -264.781          42.000  
G11  25715291.074     -261571.5262       1704.638          33.000  
G16  21913945.030      557118.669       -3099.244          39.000  
> 2012  9 14 12 47 43.9990000  0 15                     
G 3  20700793.590      -75640.467         394.552          45.000  
G19  21842114.157     -412391.465        2289.688          43.000  
S38  36692624.529      101359.3702       -258.821          43.000  
G20  23731329.663      523964.993       -3230.457          40.000  
G 6  21667081.528      155074.321        -886.228          47.000  
G 7  22366417.501     -280194.808        1583.776          46.000  
G23  19853100.996      163173.944        -796.906          45.000  
G32  24994495.905      495527.4872      -3303.668          32.000  
G10  23651134.552      -83772.592         279.321          36.000  
S33  36423160.483       62724.0652       -275.077          41.000  
G30  24132777.663      635813.279       -3586.474          39.000  
G13  20412199.900     -272553.740        1499.514          44.000  
S35  37745853.186       48042.6312       -263.964          42.000  
G11  25714966.412     -263277.5982       1705.142          33.000  
G16  21914533.835      560217.418       -3099.471          38.000  
> 2012  9 14 12 47 44.9990000  0 15                     
G 3  20700718.484      -76035.187         393.711          45.000  
G19  21841676.994     -414681.967        2289.977          43.000  
S38  36692673.634      101617.9412       -259.521          43.000  
G20  23731944.679      527194.523       -3230.056          40.000  
G 6  21667249.626      155960.522        -887.496          46.000  
G 7  22366115.508     -281779.362        1583.760          46.000  
G23  19853252.411      163970.280        -796.931          45.000  
G32  24995124.462      498830.0722      -3302.676          31.000  
G10  23651080.893      -84051.802         277.256          35.000  
S33  36423213.392       62998.7592       -274.904          41.000  
G30  24133459.600      639398.467       -3586.309          39.000  
G13  20411913.821     -274053.448        1498.627          44.000  
S35  37745902.762       48305.6232       -264.153          42.000  
G11  25714642.030     -264984.0642       1707.108          33.000  
G16  21915123.443      563316.208       -3099.480          37.000  
> 2012  9 14 12 47 45.9990000  0 15                     
G 3  20700643.413      -76429.790         394.643          45.000  
G19  21841239.779     -416972.635        2290.670          43.000  
S38  36692722.686      101876.0382       -258.043          43.000  
G20  23732559.921      530423.448       -3228.532          40.000  
G 6  21667417.567      156846.803        -886.435          46.000  
G 7  22365813.322     -283364.430        1585.218          46.000  
G23  19853403.914      164766.665        -796.714          46.000  
G32  24995753.001      502132.0002      -3301.303          31.000  
G10  23651027.338      -84330.960         278.469          35.000  
S33  36423265.027       63273.0132       -274.539          41.000  
G30  24134141.345      642983.100       -3584.102          39.000  
G13  20411627.934     -275553.237        1499.814          44.000  
S35  37745953.106       48567.9682       -263.237          42.000  
G11  25714316.531     -266691.4562       1707.190          33.000  
G16  21915712.074      566414.629       -3098.868          36.000  
> 2012  9 14 12 47 46.9990000  0 15                     
G 3  20700567.993      -76823.494         394.310          45.000  
G19  21840803.576     -419262.718        2291.102          43.000  
S38  36692771.529      102134.4342       -257.282          43.000  
G20  23733174.744      533652.549       -3227.672          40.000  
G 6  21667585.211      157733.892        -886.743          46.000  
G 7  22365511.050     -284949.289        1585.442          46.000  
G23  19853555.818      165563.863        -796.855          46.000  
G32  24996381.523      505433.8842      -3300.167          31.000  
G10  23650973.731      -84609.321         280.127          34.000  
S33  36423316.959       63547.3442       -273.456          41.000  
G30  24134822.899      646567.860       -3583.457          40.000  
G13  20411341.471     -277052.383        1499.628          43.000  
S35  37746003.625       48830.5082       -262.268          42.000  
G11  25713991.608     -268398.9922       1709.941          32.000  
G16  21916300.512      569513.474       -3099.842          35.000  
> 2012  9 14 12 47 47.9990000  0 15                     
G 3  20700493.027      -77216.303         391.550          45.000  
G19  21840367.757     -421552.177        2288.712          43.000  
S38  36692821.158      102393.0402       -259.568          43.000  
G20  23733789.533      536881.848       -3229.781          40.000  
G 6  21667754.740      158621.841        -888.794          46.000  
G 7  22365209.527     -286533.881        1583.431          46.000  
G23  19853707.321      166361.895        -799.163          46.000  
G32  24997009.713      508735.9003      -3303.401          31.000  
G10  23650919.828      -84886.982         276.571          33.000  
S33  36423368.891       63821.8302       -275.199          41.000  
G30  24135504.801      650152.854       -3585.224          40.000  
G13  20411055.654     -278550.827        1497.767          43.000  
S35  37746053.619       49093.2392       -264.001          42.000  
G11  25713666.877     -270106.6122       1707.343          32.000  
G16  21916889.859      572612.746       -3099.686          34.000  
> 2012  9 14 12 47 48.9990000  0 15                     
G 3  20700418.271      -77608.568         391.719          45.000  
G19  21839932.461     -423841.425        2288.987          43.000  
S38  36692869.251      102651.4172       -259.732          43.000  
G20  23734404.077      540110.968       -3229.764          40.000  
G 6  21667922.890      159510.279        -888.766          46.000  
G 7  22364907.569     -288118.594        1584.604          46.000  
G23  19853859.313      167160.394        -798.936          46.000  
G32  24997637.624      512037.6252      -3301.284          31.000  
G10  23650865.976      -85164.151         277.265          33.000  
S33  36423421.102       64096.0972       -274.266          41.000  
G30  24136186.389      653737.652       -3585.246          40.000  
G13  20410769.383     -280048.967        1497.631          42.000  
S35  37746103.963       49355.8632       -263.153          42.000  
G11  25713342.041     -271815.244        1706.749          31.000  
G16  21917480.496      575712.075       -3099.456          32.000  
> 2012  9 14 12 47 49.9990000  0 15                     
G 3  20700343.549      -78000.840         392.506          45.000  
G19  21839497.916     -426130.930        2289.808          43.000  
S38  36692918.198      102909.0022       -256.894          43.000  
G20  23735018.883      543339.397       -3228.012          40.000  
G 6  21668090.552      160398.668        -887.753          46.000  
G 7  22364604.633     -289703.951        1585.705          46.000  
G23  19854011.112      167958.838        -797.553          46.000  
G32  24998265.553      515338.4752      -3298.564          31.000  
G10  23650812.701      -85441.4113        278.264          32.000  
S33  36423473.679       64369.6762       -273.554          41.000  
G30  24136868.029      657321.815       -3582.418          40.000  
G13  20410483.304     -281547.306        1498.773          42.000  
S35  37746153.452       49617.8192       -261.815          42.000  
G11  25713016.647     -273523.9283       1710.738          31.000  
G16  21918070.872      578811.4723      -3097.687          30.000  
> 2012  9 14 12 47 50.9990000  0 15                     
G 3  20700269.193      -78392.502         392.442          45.000  
G19  21839062.882     -428420.103        2290.439          44.000  
S38  36692967.164      103166.5902       -256.909          43.000  
G20  23735633.550      546567.735       -3227.272          40.000  
G 6  21668258.859      161287.597        -888.631          46.000  
G 7  22364301.628     -291289.346        1586.403          45.000  
G23  19854163.226      168757.820        -798.049          47.000  
G32  24998893.621      518639.0752      -3298.713          31.000  
G10  23650758.849      -85718.1842        278.708          32.000  
S33  36423525.646       64643.1832       -273.095          41.000  
G30  24137549.268      660905.852       -3583.332          39.000  
G13  20410196.998     -283045.264        1498.987          41.000  
S35  37746202.732       49879.7902       -260.684          42.000  
G11  25712691.340     -275233.3692       1710.873          30.000  
G16  21918572.234      581910.1123      -3101.768          28.000  
> 2012  9 14 12 47 51.9990000  0 15                     
G 3  20700195.030      -78783.448         388.854          46.000  
G19  21838628.040     -430708.865        2286.980          44.000  
S38  36693015.867      103424.2432       -258.637          43.000  
G20  23736248.234      549796.070       -3230.596          40.000  
G 6  21668428.249      162177.216        -891.923          46.000  
G 7  22363999.076     -292874.680        1583.864          45.000  
G23  19854315.391      169557.4463       -801.526          47.000  
G32  24999521.149      521939.5763      -3304.538          31.000  
G10  23650706.603      -85994.3522        270.714          32.000  
S33  36423577.595       64916.8562       -276.658          41.000  
G30  24138230.734      664489.9113      -3585.908          40.000  
G13  20409911.251     -284542.722        1495.309          40.000  
S35  37746252.831       50141.7692       -263.371          42.000  
G11  25712366.225     -276943.2413       1709.573          30.000  
G16  21919164.634      585009.3033      -3100.993          27.000  
> 2012  9 14 12 47 52.9990000  0 16                     
G 3  20700120.448      -79172.878         390.936          46.000  
G 8  25361408.249      -12966.0113       1896.230          30.000  
G19  21838193.634     -432996.419        2289.058          44.000  
S38  36693065.077      103682.6802       -257.197          43.000  
G20  23736863.424      553025.210       -3227.786          40.000  
G 6  21668597.411      163068.292        -889.538          45.000  
G 7  22363697.222     -294459.137        1586.543          45.000  
G23  19854467.994      170358.5122       -799.762          47.000  
G32  25000148.938      525240.7202      -3300.831          31.000  
G10  23650653.939      -86269.1322        276.015          32.000  
S33  36423629.161       65191.4312       -272.504          41.000  
G30  24138912.427      668074.7962      -3582.392          40.000  
G13  20409625.783     -286038.868        1498.530          39.000  
S35  37746303.175       50404.6252       -261.100          42.000  
G11  25712040.395     -278652.5913       1711.476          30.000  
G16  21919749.967      588109.3853      -3102.219          28.000  
> 2012  9 14 12 47 53.9990000  0 16                     
G 3  20700046.529      -79562.997         388.342          46.000  
G 8  25361064.200      -14851.8503       1868.211          30.000  
G19  21837759.159     -435284.932        2287.099          44.000  
S38  36693114.845      103939.7572       -258.128          43.000  
G20  23737478.160      556252.947       -3229.034          40.000  
G 6  21668766.504      163958.620        -891.981          45.000  
G 7  22363394.984     -296044.949        1584.461          45.000  
G23  19854619.985      171158.8182       -801.744          47.000  
G32  25000777.512      528540.3583      -3299.914          31.000  
G10  23650600.750      -86544.7183        272.345          31.000  
S33  36423680.621       65464.4052       -274.528          41.000  
G30  24139594.277      671658.2692      -3583.870          40.000  
G13  20409338.989     -287535.958        1495.407          38.000  
S35  37746352.716       50666.1972       -262.627          42.000  
G11  25711714.041     -280363.6113       1708.862          29.000  
G16  21920336.259      591208.4123      -3100.484          29.000  
> 2012  9 14 12 47 54.9990000  0 16                     
G 3  20699972.173      -79952.395         387.976          46.000  
G 8  25360680.976      -16736.8013       1898.210          20.000  
G19  21837324.142     -437573.037        2286.867          44.000  
S38  36693163.915      104196.7682       -258.252          43.000  
G20  23738092.408      559480.706       -3229.215          40.000  
G 6  21668934.672      164849.621        -891.902          45.000  
G 7  22363092.502     -297630.677        1584.682          45.000  
G23  19854772.552      171959.7872       -802.428          47.000  
G32  25001404.830      531839.8873      -3300.644          31.000  
G10  23650548.766      -86819.7133        275.123          30.000  
S33  36423732.885       65737.3852       -275.221          41.000  
G30  24140275.184      675241.7662      -3584.401          40.000  
G13  20409052.770     -289032.548        1495.667          37.000  
S35  37746402.170       50927.8822       -262.116          42.000  
G11  25711387.844     -282074.9783       1710.686          29.000  
G16  21920926.356      594307.7053      -3098.131          30.000  
> 2012  9 14 12 47 55.9990000  0 16                     
G 3  20699898.272      -80340.826         386.760          46.000  
G 8  25360308.641      -18629.9083       1884.002          21.000  
G19  21836888.463     -439860.440        2286.727          44.000  
S38  36693212.880      104454.0532       -258.010          43.000  
G20  23738707.528      562708.738       -3228.974          40.000  
G 6  21669103.816      165741.528        -893.139          45.000  
G 7  22362789.776     -299216.086        1584.881          45.000  
G23  19854925.416      172761.6682       -802.830          47.000  
G32  25002033.352      535139.5072      -3300.088          31.000  
G10  23650496.066      -87093.8402        272.016          29.000  
S33  36423784.974       66010.7642       -273.930          41.000  
G30  24140956.737      678825.5472      -3584.306          40.000  
G13  20408767.616     -290528.341        1494.894          35.000  
S35  37746452.165       51189.8692       -263.001          42.000  
G11  25711061.193     -283786.3853       1713.540          29.000  
G16  21921514.777      597407.4532      -3099.930          32.000  
> 2012  9 14 12 47 56.9990000  0 16                     
G 3  20699824.475      -80728.007         386.217          46.000  
G 8  25359948.486      -20521.1583       1897.833          21.000  
G19  21836453.673     -442146.888        2285.892          45.000  
S38  36693261.915      104711.7912       -257.935          43.000  
G20  23739321.758      565937.319       -3228.825          40.000  
G 6  21669273.293      166634.652        -893.772          45.000  
G 7  22362487.939     -300800.898        1584.208          45.000  
G23  19855077.931      173564.7232       -803.710          48.000  
G32  25002661.106      538439.5852      -3300.226          31.000  
G10  23650441.412      -87367.0763        271.469          27.000  
S33  36423837.377       66284.7012       -274.011          41.000  
G30  24141638.064      682409.8672      -3584.730          39.000  
G13  20408433.253     -292022.9003       1492.674          33.000  
S35  37746502.474       51452.2362       -263.040          42.000  
G11  25710735.956     -285497.4553       1709.990          29.000  
G16  21922105.711      600507.9482      -3100.902          33.000  
> 2012  9 14 12 47 57.9990000  0 16                     
G 3  20699750.154      -81114.678         385.306          46.000  
G 8  25359586.272      -22413.4953       1885.332          21.000  
G19  21836018.500     -444433.132        2285.442          45.000  
S38  36693310.514      104969.3552       -258.423          43.000  
G20  23739936.529      569165.671       -3228.444          40.000  
G 6  21669442.438      167528.219        -894.625          45.000  
G 7  22362185.265     -302385.867        1583.977          44.000  
G23  19855230.865      174368.2022       -804.766          48.000  
G32  25003288.476      541739.3162      -3298.998          31.000  
G10  23650389.882      -87642.2763        271.254          26.000  
S33  36423889.396       66558.4202       -274.894          41.000  
G30  24142318.901      685993.9862      -3584.917          39.000  
G13  20408129.113     -293517.3922       1495.472          33.000  
S35  37746552.329       51714.4362       -262.891          42.000  
G11  25710410.562     -287209.1093       1710.089          30.000  
G16  21922696.541      603608.4932      -3101.462          35.000  
> 2012  9 14 12 47 58.9990000  0 15                     
G 3  20699677.160      -81501.000         384.805          47.000  
G 8  25359225.488      -24305.0553       1890.618          22.000  
G19  21835583.693     -446719.318        2285.054          45.000  
S38  36693359.183      105226.6632       -258.601          43.000  
G20  23740551.807      572393.659       -3228.831          40.000  
G 6  21669612.246      168422.066        -895.224          44.000  
G 7  22361882.609     -303971.129        1584.832          44.000  
G23  19855383.973      175171.9662       -805.146          48.000  
G32  25003916.318      545038.5092      -3298.907          31.000  
S33  36423941.118       66831.9502       -274.559          41.000  
G30  24143000.053      689577.7402      -3585.575          39.000  
G13  20407838.078     -295011.8122       1492.999          33.000  
S35  37746601.329       51976.2642       -263.082          42.000  
G11  25710084.609     -288921.4063       1712.425          30.000  
G16  21923286.934      606708.9142      -3101.633          36.000  
> 2012  9 14 12 47 59.9990000  0 15                     
G 3  20699603.014      -81886.532         384.126          47.000  
G 8  25358862.245      -26197.1463       1894.944          22.000  
G19  21835148.885     -449005.005        2284.382          44.000  
S38  36693407.921      105483.9972       -257.801          43.000  
G20  23741166.438      575621.748       -3228.798          40.000  
G 6  21669782.176      169316.649        -896.162          44.000  
G 7  22361580.022     -305556.263        1583.809          44.000  
G23  19855536.383      175976.4512       -805.812          48.000  
G32  25004543.723      548337.7163      -3299.211          31.000  
S33  36423992.736       67105.7612       -274.035          41.000  
G30  24143681.048      693161.6112      -3584.480          39.000  
G13  20407554.756     -296505.6792       1492.296          33.000  
S35  37746651.499       52238.1502       -263.326          42.000  
G11  25709758.116     -290633.8653       1713.433          29.000  
G16  21923876.961      609809.6212      -3101.631          37.000  
> 2012  9 14 12 48  0.9990000  0 15                     
G 3  20699529.967      -82270.871         383.574          47.000  
G 8  25358500.694      -28087.7563       1889.760          22.000  
G19  21834713.607     -451289.792        2284.370          44.000  
S38  36693457.306      105741.7912       -257.961          43.000  
G20  23741782.064      578850.306       -3228.889          40.000  
G 6  21669951.059      170212.369        -896.874          44.000  
G 7  22361276.580     -307140.855        1584.107          43.000  
G23  19855689.230      176782.066        -806.339          48.000  
G32  25005172.210      551637.1763      -3299.433          31.000  
S33  36424044.458       67380.0192       -274.216          41.000  
G30  24144361.694      696745.987       -3583.498          39.000  
G13  20407263.512     -297998.5782       1493.213          34.000  
S35  37746701.337       52500.6322       -262.427          42.000  
G11  25709431.971     -292346.2823       1713.741          29.000  
G16  21924466.726      612911.0362      -3101.868          38.000  
> 2012  9 14 12 48  1.9990000  0 15                     
G 3  20699456.746      -82654.561         383.249          47.000  
G 8  25358139.980      -29980.4293       1900.589          23.000  
G19  21834278.922     -453574.205        2284.086          45.000  
S38  36693506.306      105999.6882       -258.983          43.000  
G20  23742396.696      582078.818       -3229.149          40.000  
G 6  21670120.274      171108.689        -896.797          44.000  
G 7  22360973.958     -308725.442        1584.611          43.000  
G23  19855843.123      177588.252        -806.805          48.000  
G32  25005799.580      554936.4913      -3298.877          31.000  
S33  36424096.669       67654.3222       -275.010          41.000  
G30  24145042.636      700330.288       -3585.173          38.000  
G13  20406976.159     -299490.9903       1492.527          35.000  
S35  37746751.140       52763.0612       -262.034          42.000  
G11  25709105.931     -294058.9833       1717.150          28.000  
G16  21925055.269      616012.6232      -3102.333          39.000  
> 2012  9 14 12 48  2.9990000  0 15                     
G 3  20699383.473      -83038.674         384.065          47.000  
G 8  25357776.510      -31874.5083       1891.625          23.000  
G19  21833844.237     -455859.347        2285.295          45.000  
S38  36693555.341      106256.6132       -256.935          43.000  
G20  23743012.043      585306.190       -3227.250          40.000  
G 6  21670289.681      172004.529        -895.517          43.000  
G 7  22360671.145     -310311.096        1586.535          42.000  
G23  19855995.114      178393.959        -805.640          49.000  
G32  25006426.654      558234.4893      -3299.788          31.000  
S33  36424148.706       67927.5362       -272.247          41.000  
G30  24145722.828      703913.473       -3583.563          38.000  
G13  20406689.138     -300984.0712       1493.292          36.000  
S35  37746800.995       53024.3582       -260.835          42.000  
G11  25708779.717     -295773.1963       1717.321          28.000  
G16  21925643.987      619113.3282      -3099.384          39.000  
> 2012  9 14 12 48  3.9990000  0 15                     
G 3  20699310.286      -83422.384         383.280          47.000  
G 8  25357412.358      -33767.4603       1894.915          24.000  
G19  21833409.622     -458144.371        2284.951          45.000  
S38  36693603.870      106513.3602       -256.784          43.000  
G20  23743626.535      588533.259       -3227.098          40.000  
G 6  21670459.105      172900.692        -896.336          43.000  
G 7  22360368.122     -311897.014        1585.889          42.000  
G23  19856148.205      179199.975        -806.350          49.000  
G32  25007054.059      561532.1423      -3298.132          30.000  
S33  36424200.865       68200.4312       -272.535          41.000  
G30  24146403.369      707496.353       -3583.175          37.000  
G13  20406403.583     -302476.9653       1492.672          37.000  
S35  37746850.187       53285.3142       -260.800          42.000  
G11  25708453.450     -297487.9003       1717.258          28.000  
G16  21926232.914      622213.8992      -3101.280          40.000  
> 2012  9 14 12 48  4.9990000  0 15                     
G 3  20699236.978      -83804.364         381.302          48.000  
G 8  25357051.575      -35659.5443       1893.149          25.000  
G19  21832975.059     -460427.950        2282.853          45.000  
S38  36693653.359      106771.0452       -258.365          43.000  
G20  23744241.009      591761.328       -3228.907          39.000  
G 6  21670628.128      173798.545        -898.726          43.000  
G 7  22360064.505     -313481.873        1584.024          41.000  
G23  19856301.854      180007.662        -808.469          49.000  
G32  25007681.010      564830.6583      -3297.812          31.000  
S33  36424252.796       68474.3132       -274.319          41.000  
G30  24147084.381      711080.2523      -3584.134          37.000  
G13  20406120.663     -303968.3332       1490.358          39.000  
S35  37746900.583       53547.2632       -262.675          42.000  
G11  25708127.637     -299201.9893       1715.084          28.000  
G16  21926822.557      625315.7462      -3102.588          41.000  
> 2012  9 14 12 48  5.9990000  0 16                     
G 3  20699165.031      -84185.603         381.125          48.000  
G 8  25356689.361      -37551.9643       1890.892          26.000  
G19  21832540.741     -462711.066        2283.119          45.000  
S38  36693702.080      107028.6372       -257.192          43.000  
G20  23744855.815      594989.451       -3228.436          39.000  
G 6  21670797.570      174697.089        -898.769          42.000  
G 7  22359760.470     -315066.608        1584.460          40.000  
G23  19856455.224      180816.031        -808.960          49.000  
G32  25008308.572      568129.0473      -3300.006          30.000  
G10  23649882.150      -89807.4553        267.698          28.000  
S33  36424305.130       68748.2212       -274.306          41.000  
G30  24147766.126      714664.2012      -3584.613          37.000  
G13  20405836.137     -305459.1722       1490.412          40.000  
S35  37746950.264       53809.2302       -262.495          42.000  
G11  25707801.388     -300916.1993       1714.975          28.000  
G16  21927411.363      628417.8572      -3102.407          41.000  
> 2012  9 14 12 48  6.9990000  0 16                     
G 3  20699092.002      -84566.694         381.230          48.000  
G 8  25356332.731      -39444.8513       1893.167          26.000  
G19  21832106.423     -464994.337        2283.637          45.000  
S38  36693751.010      107285.6192       -255.983          43.000  
G20  23745470.290      598217.017       -3227.267          39.000  
G 6  21670968.686      175595.724        -898.320          42.000  
G 7  22359456.801     -316651.857        1586.080          40.000  
G23  19856609.327      181624.458        -808.189          49.000  
G32  25008935.942      571426.7643      -3296.010          30.000  
G10  23649834.284      -90075.3693        268.108          29.000  
S33  36424356.800       69021.5252       -272.149          41.000  
G30  24148446.807      718247.6222      -3583.096          37.000  
G13  20405551.035     -306950.1112       1490.390          41.000  
S35  37746999.718       54070.5752       -260.577          42.000  
G11  25707475.348     -302631.4393       1716.506          28.000  
G16  21928000.255      631519.108       -3101.435          42.000  
> 2012  9 14 12 48  7.9990000  0 16                     
G 3  20699019.287      -84947.034         378.900          48.000  
G 8  25355971.284      -41337.8843       1892.706          27.000  
G19  21831672.540     -467277.137        2282.085          45.000  
S38  36693799.888      107542.7262       -258.076          43.000  
G20  23746085.026      601444.609       -3228.824          39.000  
G 6  21671137.988      176495.045        -900.607          41.000  
G 7  22359152.871     -318236.991        1584.167          39.000  
G23  19856763.203      182433.590        -810.344          49.000  
G32  25009563.068      574724.4383      -3300.323          30.000  
G10  23649783.783      -90342.9203        266.224          30.000  
S33  36424409.342       69294.9442       -274.747          41.000  
G30  24149128.954      721831.0882      -3582.852          36.000  
G13  20405266.509     -308440.4692       1489.370          41.000  
S35  37747049.800       54331.9912       -262.844          42.000  
G11  25707148.872     -304346.8893       1719.932          28.000  
G16  21928588.484      634621.158       -3103.147          42.000  
> 2012  9 14 12 48  8.9990000  0 16                     
G 3  20698947.165      -85326.266         378.144          48.000  
G 8  25355614.602      -43230.4213       1890.741          27.000  
G19  21831237.681     -469559.108        2281.161          45.000  
S38  36693848.923      107800.4732       -258.016          43.000  
G20  23746700.199      604672.598       -3229.263          38.000  
G 6  21671308.268      177395.436        -900.782          41.000  
G 7  22358849.656     -319821.662        1583.824          38.000  
G23  19856917.411      183243.758        -811.240          49.000  
G32  25010190.770      578022.2683      -3299.417          30.000  
G10  23649732.393      -90608.9953        267.132          31.000  
S33  36424461.972       69568.8512       -275.478          41.000  
G30  24149809.948      725414.9512      -3585.386          36.000  
G13  20404982.036     -309929.9632       1488.445          42.000  
S35  37747099.289       54593.8242       -262.887          42.000  
G11  25706824.403     -306062.1173       1713.957          28.000  
G16  21929177.028      637723.808       -3103.242          43.000  
> 2012  9 14 12 48  9.9990000  0 16                     
G 3  20698875.375      -85704.879         377.555          48.000  
G 8  25355258.199      -45123.0123       1893.351          28.000  
G19  21830803.956     -471840.762        2280.399          45.000  
S38  36693897.417      108058.2152       -258.370          43.000  
G20  23747315.354      607900.497       -3227.988          38.000  
G 6  21671478.547      178296.391        -901.884          40.000  
G 7  22358545.569     -321406.381        1583.654          37.000  
G23  19857071.374      184054.471        -811.459          49.000  
G32  25010818.420      581319.9703      -3300.896          30.000  
G10  23649681.700      -90874.9112        264.638          32.000  
S33  36424513.799       69842.6322       -275.147          41.000  
G30  24150491.083      728998.7402      -3586.543          36.000  
G13  20404697.510     -311419.0422       1488.172          43.000  
S35  37747148.464       54855.6092       -262.072          42.000  
G11  25706496.513     -307777.7623       1716.089          28.000  
G16  21929766.758      640826.582       -3103.868          43.000  
> 2012  9 14 12 48 10.9990000  0 16                     
G 3  20698802.887      -86082.897         379.190          48.000  
G 8  25354902.406      -47015.8443       1893.155          28.000  
G19  21830369.707     -474122.084        2282.634          45.000  
S38  36693946.156      108315.8472       -255.727          43.000  
G20  23747930.474      611128.280       -3225.811          37.000  
G 6  21671648.285      179197.866        -900.444          39.000  
G 7  22358242.458     -322991.156        1586.895          36.000  
G23  19857225.739      184865.713        -810.023          49.000  
G32  25011446.627      584617.3512      -3294.886          30.000  
G10  23649635.788      -91140.2882        265.148          33.000  
S33  36424565.784       70116.2912       -272.714          41.000  
G30  24151172.618      732582.4272      -3584.117          35.000  
G13  20404412.112     -312907.7452       1489.934          44.000  
S35  37747198.301       55117.2842       -260.486          42.000  
G11  25706168.589     -309493.8653       1717.794          27.000  
G16  21930354.865      643929.480       -3101.182          44.000  
> 2012  9 14 12 48 11.9990000  0 16                     
G 3  20698731.079      -86461.181         378.820          48.000  
G 8  25354540.157      -48909.6423       1893.595          28.000  
G19  21829935.825     -476403.994        2282.904          45.000  
S38  36693995.051      108572.3962       -256.260          43.000  
G20  23748544.669      614355.0773      -3225.408          36.000  
G 6  21671817.605      180099.038        -900.817          38.000  
G 7  22357937.934     -324576.3783       1587.423          34.000  
G23  19857380.924      185676.605        -810.323          49.000  
G32  25012073.125      587913.5903      -3295.905          30.000  
G10  23649582.931      -91406.0753        266.018          34.000  
S33  36424617.366       70389.0042       -272.925          41.000  
G30  24151853.788      736165.1203      -3581.502          35.000  
G13  20404126.626     -314396.9492       1489.471          44.000  
S35  37747247.406       55378.0432       -259.815          42.000  
G11  25705843.840     -311211.3293       1717.240          27.000  
G16  21930943.042      647031.613       -3101.444          44.000  
> 2012  9 14 12 48 12.9990000  0 16                     
G 3  20698659.201      -86838.145         375.458          48.000  
G 8  25354179.688      -50802.9513       1891.803          29.000  
G19  21829501.629     -478684.854        2279.969          45.000  
S38  36694044.069      108829.5012       -257.967          43.000  
G20  23749159.650      617582.5142      -3228.996          36.000  
G 6  21671986.924      181001.466        -903.562          38.000  
G 7  22357633.673     -326161.4092       1584.375          29.000  
G23  19857535.428      186488.771        -813.492          49.000  
G32  25012700.740      591210.4303      -3299.573          30.000  
G10  23649530.179      -91670.6663        263.423          35.000  
S33  36424669.804       70662.3782       -274.131          41.000  
G30  24152534.870      739748.4902      -3585.293          35.000  
G13  20403841.490     -315885.536        1486.841          45.000  
S35  37747297.401       55639.5302       -261.977          42.000  
G11  25705515.689     -312928.5643       1716.502          27.000  
G16  21931530.696      650134.597       -3103.608          45.000  
> 2012  9 14 12 48 13.9990000  0 16                     
G 3  20698587.760      -87213.948         375.746          48.000  
G 8  25353819.201      -52695.7483       1892.805          28.000  
G19  21829067.275     -480964.861        2280.865          45.000  
S38  36694092.720      109087.0952       -256.933          43.000  
G20  23749773.793      620810.3592      -3227.635          35.000  
G 6  21672155.947      181905.010        -903.206          36.000  
G 7  22357254.095     -327745.4953       1585.564          33.000  
G23  19857690.072      187302.018        -812.667          49.000  
G32  25013328.267      594507.5203      -3295.938          30.000  
G10  23649485.193      -91934.2022        264.735          35.000  
S33  36424721.684       70936.2562       -272.860          41.000  
G30  24153216.091      743332.2832      -3583.074          34.000  
G13  20403556.336     -317372.708        1487.800          45.000  
S35  37747347.291       55901.5632       -261.016          42.000  
G11  25705188.165     -314645.4813       1717.506          27.000  
G16  21932118.524      653238.217       -3102.773          45.000  
> 2012  9 14 12 48 14.9990000  0 16                     
G 3  20698516.127      -87589.428         375.054          48.000  
G 8  25353460.460      -54589.0563       1892.390          28.000  
G19  21828633.341     -483244.833        2279.732          45.000  
S38  36694141.371      109344.2552       -257.331          43.000  
G20  23750388.791      624037.8412      -3228.246          34.000  
G 6  21672324.080      182808.800        -903.258          35.000  
G 7  22356950.531     -329330.4723       1584.367          33.000  
G23  19857844.489      188115.506        -813.742          49.000  
G32  25013955.236      597804.1003      -3296.563          30.000  
G10  23649433.017      -92197.5342        263.985          36.000  
S33  36424773.877       71209.6302       -273.474          41.000  
G30  24153897.051      746915.6143      -3583.051          34.000  
G13  20403270.815     -318859.766        1487.346          46.000  
S35  37747397.391       56163.3432       -261.667          42.000  
G11  25704862.370     -316363.2373       1717.625          27.000  
G16  21932707.120      656341.700       -3103.384          45.000  
> 2012  9 14 12 48 15.9990000  0 16                     
G 3  20698444.215      -87964.869         373.953          48.000  
G 8  25353100.846      -56482.9793       1893.135          28.000  
G19  21828199.074     -485525.067        2278.601          45.000  
S38  36694190.145      109600.7822       -257.465          43.000  
G20  23751002.463      627264.6602      -3227.938          34.000  
G 6  21672460.802      183712.6063       -906.159          34.000  
G 7  22356645.379     -330915.9833       1584.461          33.000  
G23  19857999.237      188928.975        -814.939          49.000  
G32  25014582.379      601099.7903      -3299.145          31.000  
G10  23649381.905      -92460.9223        261.365          36.000  
S33  36424825.670       71482.2252       -275.047          41.000  
G30  24154577.941      750498.4652      -3583.058          33.000  
G13  20402984.963     -320346.995        1485.945          46.000  
S35  37747447.054       56424.5382       -262.481          41.000  
G11  25704534.358     -318081.8933       1718.321          27.000  
G16  21933294.983      659444.727       -3104.291          45.000  
> 2012  9 14 12 48 16.9990000  0 16                     
G 3  20698372.756      -88339.915         372.604          48.000  
G 8  25352741.493      -58377.2893       1893.175          29.000  
G19  21827766.222     -487805.166        2278.096          45.000  
S38  36694239.459      109857.1192       -258.233          43.000  
G20  23751614.965      630491.1743      -3228.861          32.000  
G 6  21672615.167      184616.6443       -906.371          33.000  
G 7  22356332.200     -332501.7763       1583.981          33.000  
G23  19858154.300      189742.769        -816.026          49.000  
G32  25015209.208      604395.0973      -3295.272          31.000  
G10  23649331.509      -92724.0773        259.913          37.000  
S33  36424877.950       71754.6082       -274.741          40.000  
G30  24155258.814      754080.8992      -3583.964          32.000  
G13  20402700.053     -321834.048        1484.835          46.000  
S35  37747496.909       56685.4242       -262.179          42.000  
G11  25704206.957     -319801.2133       1718.930          28.000  
G16  21933882.305      662547.656       -3104.942          45.000  
> 2012  9 14 12 48 17.9990000  0 16                     
G 3  20698301.821      -88713.119         372.734          48.000  
G 8  25352381.269      -60270.4483       1892.205          29.000  
G19  21827332.968     -490083.732        2278.235          45.000  
S38  36694288.390      110114.6622       -258.012          43.000  
G20  23752226.491      633718.8052      -3226.192          31.000  
G 6  21672771.940      185522.5242       -906.547          33.000  
G 7  22356029.491     -334086.3502       1584.296          33.000  
G23  19858309.537      190558.334        -816.379          49.000  
G32  25015836.823      607691.4032      -3296.306          31.000  
G10  23649280.973      -92985.4442        261.231          37.000  
S33  36424929.394       72028.1882       -273.951          41.000  
G30  24155940.803      757664.4813      -3582.575          31.000  
G13  20402414.603     -323319.471        1485.038          46.000  
S35  37747547.306       56947.3802       -262.178          41.000  
G11  25703877.968     -321519.6723       1717.733          28.000  
G16  21934469.330      665651.934       -3104.470          45.000  
> 2012  9 14 12 48 18.9990000  0 16                     
G 3  20698230.223      -89086.100         372.269          48.000  
G 8  25352025.337      -62164.1323       1892.120          29.000  
G19  21826900.534     -492362.369        2277.933          45.000  
S38  36694337.337      110371.7382       -257.118          43.000  
G20  23752837.493      636945.9653      -3227.807          30.000  
G 6  21672936.687      186428.5722       -907.408          32.000  
G 7  22355719.733     -335671.3052       1585.671          34.000  
G23  19858464.163      191374.058        -816.269          49.000  
G32  25016464.141      610987.0773      -3295.467          30.000  
G10  23649230.402      -93246.7582        261.042          38.000  
S33  36424980.889       72301.3382       -273.393          41.000  
G30  24156559.972      761247.4713      -3582.371          31.000  
G13  20402129.728     -324804.907        1485.104          47.000  
S35  37747596.288       57208.7932       -261.989          42.000  
G11  25703552.591     -323238.8963       1718.748          28.000  
G16  21935057.018      668755.960       -3104.367          45.000  
> 2012  9 14 12 48 19.9990000  0 16                     
G 3  20698158.921      -89459.076         371.345          48.000  
G 8  25351664.047      -64058.5473       1894.248          29.000  
G19  21826466.966     -494641.252        2277.680          45.000  
S38  36694385.657      110628.1972       -256.983          43.000  
G20  23753417.852      640172.2443      -3224.397          28.000  
G 6  21673104.820      187334.5973       -905.962          32.000  
G 7  22355417.163     -337256.9503       1584.177          35.000  
G23  19858619.174      192189.713        -816.836          50.000  
G32  25017091.092      614281.8903      -3296.067          30.000  
G10  23649179.814      -93508.1492        259.470          38.000  
S33  36425033.118       72573.7662       -273.502          40.000  
G30  24157224.703      764829.7963      -3582.750          31.000  
G13  20401844.504     -326290.534        1484.714          47.000  
S35  37747645.899       57469.5972       -261.868          41.000  
G11  25703226.726     -324959.1673       1719.493          29.000  
G16  21935643.974      671859.490       -3104.963          45.000  
> 2012  9 14 12 48 20.9990000  0 16                     
G 3  20698087.864      -89830.450         371.014          48.000  
G 8  25351305.724      -65952.1063       1893.532          30.000  
G19  21826033.555     -496918.858        2277.374          45.000  
S38  36694434.413      110885.6092       -257.401          43.000  
G20  23754028.976      643399.4573      -3231.797          27.000  
G 6  21673280.090      188242.0902       -907.060          32.000  
G 7  22355114.262     -338841.6262       1584.651          36.000  
G23  19858774.568      193006.892        -817.718          49.000  
G32  25017718.201      617577.5372      -3295.545          30.000  
G10  23649129.296      -93768.0332        259.771          38.000  
S33  36425085.015       72847.1032       -272.810          40.000  
G30  24157886.258      768413.1283      -3584.254          30.000  
G13  20401559.804     -327774.802        1483.989          47.000  
S35  37747695.092       57731.4112       -261.720          41.000  
G11  25702900.163     -326678.8873       1719.189          29.000  
G16  21936231.523      674964.138       -3104.609          45.000  
> 2012  9 14 12 48 21.9990000  0 16                     
G 3  20698017.121      -90201.280         369.694          48.000  
G 8  25350943.702      -67845.8443       1893.636          29.000  
G19  21825599.847     -499196.184        2276.533          45.000  
S38  36694483.343      111142.7362       -257.891          42.000  
G20  23754627.519      646626.3303      -3228.712          25.000  
G 6  21673449.270      189150.1602       -909.958          32.000  
G 7  22354812.182     -340426.4512       1582.360          36.000  
G23  19858929.526      193824.549        -818.710          49.000  
G32  25018344.507      620872.8083      -3295.069          30.000  
G10  23649078.393      -94027.5072        258.104          38.000  
S33  36425136.615       73120.2382       -273.965          40.000  
G30  24158559.592      771996.1393      -3586.531          28.000  
G13  20401274.877     -329258.727        1482.798          47.000  
S35  37747744.807       57993.1352       -262.584          41.000  
G11  25702573.931     -328399.0253       1719.603          29.000  
G16  21936818.740      678068.839       -3105.563          45.000  
> 2012  9 14 12 48 22.9990000  0 16                     
G 3  20697946.238      -90571.176         369.406          48.000  
G 8  25350585.537      -69739.4583       1892.023          30.000  
G19  21825166.855     -501472.864        2276.172          45.000  
S38  36694532.466      111400.0072       -257.593          42.000  
G20  23755237.247      649853.6883      -3228.370          25.000  
G 6  21673619.828      190059.0972       -910.976          33.000  
G 7  22354509.577     -342010.9242       1583.316          37.000  
G23  19859085.478      194643.071        -819.441          49.000  
G32  25018971.615      624168.1632      -3297.010          30.000  
G10  23649026.810      -94286.1562        257.857          39.000  
S33  36425188.529       73393.7142       -274.903          40.000  
G30  24159228.319      775579.6733      -3582.265          27.000  
G13  20400990.316     -330741.942        1482.767          47.000  
S35  37747794.872       58255.0002       -261.795          41.000  
G11  25702245.832     -330119.2513       1718.733          29.000  
G16  21937405.922      681173.997       -3105.673          44.000  
> 2012  9 14 12 48 23.9990000  0 16                     
G 3  20697875.669      -90940.934         368.619          48.000  
G 8  25350221.996      -71633.5903       1892.690          30.000  
G19  21824733.671     -503749.721        2275.284          45.000  
S38  36694581.187      111656.7712       -257.446          42.000  
G20  23755857.323      653080.3833      -3227.570          24.000  
G 6  21673791.207      190968.1232       -910.124          34.000  
G 7  22354206.921     -343595.9742       1583.581          38.000  
G23  19859240.436      195461.656        -819.827          49.000  
G32  25019598.252      627462.8542      -3296.035          29.000  
G10  23648975.437      -94544.7952        257.469          39.000  
S33  36425240.549       73666.5982       -273.854          40.000  
G30  24159912.490      779162.3853      -3583.528          27.000  
G13  20400705.773     -332225.237        1482.397          47.000  
S35  37747844.134       58516.2102       -262.328          41.000  
G11  25701920.054     -331840.3513       1720.345          29.000  
G16  21937992.442      684278.795       -3105.557          44.000  
> 2012  9 14 12 48 24.9990000  0 16                     
G 3  20697804.891      -91309.895         367.617          48.000  
G 8  25349861.143      -73527.7193       1893.980          30.000  
G19  21824300.574     -506026.063        2275.530          45.000  
S38  36694629.803      111913.6642       -258.050          42.000  
G20  23756471.675      656307.2543      -3227.771          24.000  
G 6  21673962.184      191877.8812       -911.512          34.000  
G 7  22353903.514     -345180.8282       1583.825          38.000  
G23  19859396.127      196280.970        -820.411          49.000  
G32  25020225.553      630757.4863      -3294.893          29.000  
G10  23648925.407      -94802.719         257.925          39.000  
S33  36425292.463       73939.5482       -274.081          40.000  
G30  24160583.678      782745.3783      -3582.844          27.000  
G13  20400420.793     -333707.965        1481.897          47.000  
S35  37747893.745       58777.5762       -262.173          41.000  
G11  25701591.362     -333561.6873       1720.921          29.000  
G16  21938578.664      687384.3603      -3105.955          44.000  
> 2012  9 14 12 48 25.9990000  0 15                     
G 3  20697735.457      -91677.440         367.099          48.000  
G 8  25349503.431      -75421.1323       1892.749          30.000  
G19  21823868.157     -508301.260        2274.527          45.000  
S38  36694678.856      112171.2342       -257.869          42.000  
G 6  21674133.772      192789.0002       -911.772          35.000  
G 7  22353600.526     -346764.9472       1583.665          39.000  
G23  19859551.888      197101.634        -821.177          49.000  
G32  25020852.609      634052.6783      -3295.017          29.000  
G10  23648874.924      -95059.389         256.045          39.000  
S33  36425344.465       74213.3042       -273.806          40.000  
G30  24161263.887      786328.8773      -3584.358          27.000  
G13  20400135.622     -335189.482        1480.796          47.000  
S35  37747943.775       59039.6372       -262.615          41.000  
G11  25701263.263     -335282.6163       1720.743          28.000  
G16  21939159.268      690490.4403      -3106.423          44.000  
> 2012  9 14 12 48 26.9990000  0 15                     
G 3  20697665.394      -92044.574         366.436          48.000  
G 8  25349146.435      -77315.0353       1893.642          31.000  
G19  21823435.671     -510576.337        2274.151          45.000  
S38  36694727.873      112428.5502       -256.788          42.000  
G 6  21674304.993      193700.4892       -913.262          36.000  
G 7  22353296.735     -348349.2912       1584.170          39.000  
G23  19859708.277      197922.640        -821.764          49.000  
G32  25021479.805      637347.4032      -3295.376          29.000  
G10  23648825.400      -95315.725         256.053          39.000  
S33  36425396.431       74487.0092       -274.272          40.000  
G30  24161943.730      789912.2053      -3583.188          27.000  
G13  20399850.921     -336670.803        1480.749          46.000  
S35  37747993.839       59301.4032       -261.268          41.000  
G11  25700935.792     -337004.0813       1721.215          28.000  
G16  21939748.544      693596.4062      -3106.179          43.000  
> 2012  9 14 12 48 27.9990000  0 16                     
G 3  20697595.174      -92411.638         365.765          48.000  
G 8  25348791.549      -79209.4262       1892.726          31.000  
G19  21823003.377     -512851.632        2273.893          45.000  
S38  36694776.507      112685.2062       -257.907          42.000  
G20  23758326.214      665988.6503      -3227.203          26.000  
G 6  21674476.407      194611.9872       -912.908          36.000  
G 7  22352993.468     -349934.2242       1583.975          40.000  
G23  19859864.072      198743.652        -822.522          49.000  
G32  25022106.337      640641.3893      -3294.472          29.000  
G10  23648774.166      -95572.104         255.254          39.000  
S33  36425448.939       74760.1382       -273.828          40.000  
G30  24162619.350      793494.8303      -3583.398          28.000  
G13  20399565.261     -338152.287        1480.136          46.000  
S35  37748043.799       59562.4642       -262.256          41.000  
G11  25700607.867     -338726.5963       1721.755          29.000  
G16  21940337.768      696701.9442      -3106.733          43.000  
> 2012  9 14 12 48 28.9990000  0 16                     
G 3  20697525.705      -92777.962         365.216          48.000  
G 8  25348428.323      -81103.8683       1893.255          32.000  
G19  21822570.524     -515126.496        2273.615          45.000  
S38  36694825.246      112941.9932       -258.172          42.000  
G20  23758942.748      669215.2843      -3227.981          27.000  
G 6  21674649.042      195524.1472       -913.412          37.000  
G 7  22352689.642     -351519.0742       1583.405          40.000  
G23  19860019.885      199565.317        -822.849          49.000  
G32  25022732.887      643935.2583      -3296.588          29.000  
G10  23648722.723      -95827.883         255.204          39.000  
S33  36425500.435       75033.2802       -273.521          40.000  
G30  24163294.796      797077.4893      -3583.606          28.000  
G13  20399280.421     -339633.250        1479.668          46.000  
S35  37748093.393       59823.5112       -262.457          41.000  
G11  25700280.239     -340449.3473       1721.370          29.000  
G16  21940923.433      699807.7172      -3106.783          43.000  
> 2012  9 14 12 48 29.9990000  0 16                     
G 3  20697455.922      -93142.917         363.909          48.000  
G 8  25348074.660      -82997.6643       1893.662          32.000  
G19  21822138.404     -517400.270        2272.989          45.000  
S38  36694874.228      113199.5492       -258.450          42.000  
G20  23759565.302      672442.5953      -3228.184          28.000  
G 6  21674821.747      196437.6222       -914.723          38.000  
G 7  22352385.572     -353103.1992       1583.446          41.000  
G23  19860176.501      200388.299        -824.249          49.000  
G32  25023359.280      647229.6833      -3295.350          30.000  
G10  23648671.280      -96082.421         252.442          40.000  
S33  36425552.628       75307.1032       -273.729          40.000  
G30  24163978.565      800660.8543      -3583.972          28.000  
G13  20398995.599     -341113.046        1478.827          46.000  
S35  37748143.719       60085.1772       -261.961          41.000  
G11  25699953.990     -342171.7383       1723.253          29.000  
G16  21941509.463      702914.3922      -3107.250          42.000  
> 2012  9 14 12 48 30.9990000  0 16                     
G 3  20697386.417      -93507.029         363.113          48.000  
G 8  25347718.762      -84891.3532       1892.975          32.000  
G19  21821706.512     -519673.489        2272.876          45.000  
S38  36694923.333      113457.1432       -258.282          42.000  
G20  23760175.048      675670.0503      -3227.566          29.000  
G 6  21674994.853      197351.8822       -915.000          38.000  
G 7  22352082.688     -354687.1422       1583.452          41.000  
G23  19860333.221      201212.029        -824.629          49.000  
G32  25023986.528      650524.0433      -3296.125          30.000  
G10  23648620.552      -96336.187         252.988          40.000  
S33  36425604.473       75581.0052       -274.026          40.000  
G30  24164658.059      804244.4413      -3583.719          29.000  
G13  20398702.348     -342591.5643       1478.708          46.000  
S35  37748193.313       60347.0112       -262.154          41.000  
G11  25699623.378     -343894.2213       1723.082          29.000  
G16  21942094.709      706021.3932      -3107.351          42.000  
> 2012  9 14 12 48 31.9990000  0 16                     
G 3  20697316.686      -93871.363         364.754          48.000  
G 8  25347354.053      -86786.0272       1895.553          32.000  
G19  21821274.322     -521947.217        2274.649          45.000  
S38  36694972.229      113713.7122       -255.607          42.000  
G20  23760781.094      678896.6803      -3225.093          30.000  
G 6  21675167.732      198265.8762       -913.458          39.000  
G 7  22351779.386     -356271.9522       1585.456          42.000  
G23  19860489.715      202035.479        -823.018          49.000  
G32  25024613.829      653817.3493      -3295.804          30.000  
G10  23648569.493      -96590.311         255.251          40.000  
S33  36425656.562       75853.8812       -271.109          40.000  
G30  24165334.901      807827.0773      -3581.920          29.000  
G13  20398421.312     -344070.8563       1480.287          45.000  
S35  37748242.767       60607.9402       -260.447          41.000  
G11  25699297.129     -345617.9473       1725.131          29.000  
G16  21942684.003      709127.7152      -3105.180          41.000  
> 2012  9 14 12 48 32.9990000  0 16                     
G 3  20697246.065      -94235.695         362.708          48.000  
G 8  25346990.216      -88681.3893       1893.143          32.000  
G19  21820842.132     -524221.240        2272.261          46.000  
S38  36695020.915      113969.5412       -256.282          42.000  
G20  23761406.946      682122.1263      -3228.600          30.000  
G 6  21675339.634      199179.7902       -916.319          39.000  
G 7  22351476.276     -357857.4362       1583.589          42.000  
G23  19860646.278      202858.858        -825.154          49.000  
G32  25025239.402      657109.8213      -3294.012          29.000  
G10  23648519.986      -96844.563         252.581          40.000  
S33  36425708.249       76126.0703       -274.269          40.000  
G30  24166014.570      811408.8193      -3584.343          30.000  
G13  20398134.448     -345550.6892       1478.208          45.000  
S35  37748292.081       60868.2392       -261.642          41.000  
G11  25698968.192     -347342.9103       1722.762          29.000  
G16  21943270.225      712233.5222      -3106.990          41.000  
> 2012  9 14 12 48 33.9990000  0 16                     
G 3  20697177.032      -94598.229         361.707          48.000  
G 8  25346628.804      -90575.7102       1893.968          32.000  
G19  21820409.699     -526493.722        2272.117          46.000  
S38  36695069.374      114226.3322       -257.529          42.000  
G20  23762023.776      685349.0142      -3227.707          31.000  
G 6  21675511.990      200095.4812       -916.851          39.000  
G 7  22351172.991     -359441.7452       1583.949          42.000  
G23  19860803.121      203683.981        -825.966          49.000  
G32  25025865.620      660403.2923      -3292.845          30.000  
G10  23648469.974      -97097.104         253.065          40.000  
S33  36425759.989       76399.4712       -273.532          40.000  
G30  24166694.447      814991.8503      -3583.305          31.000  
G13  20397846.729     -347028.9402       1477.853          45.000  
S35  37748341.866       61129.7392       -262.018          41.000  
G11  25698640.233     -349066.9223       1723.136          29.000  
G16  21943842.854      715326.4153      -3107.740          40.000  
> 2012  9 14 12 48 34.9990000  0 16                     
G 3  20697107.825      -94959.770         360.729          48.000  
G 8  25346268.998      -92469.8222       1894.132          33.000  
G19  21819977.265     -528765.532        2271.195          46.000  
S38  36695118.217      114483.5442       -257.781          42.000  
G20  23762640.048      688576.1782      -3227.880          32.000  
G 6  21675684.782      201012.1012       -917.105          40.000  
G 7  22350869.165     -361025.7192       1583.847          42.000  
G23  19860959.405      204510.013        -826.516          48.000  
G32  25026492.380      663696.8533      -3291.956          29.000  
G10  23648419.525      -97348.801         250.124          40.000  
S33  36425811.991       76673.1352       -274.322          40.000  
G30  24167376.559      818575.1232      -3581.568          31.000  
G13  20397561.680     -348506.4232       1477.076          45.000  
S35  37748391.495       61391.6352       -262.502          41.000  
G11  25698312.029     -350790.9573       1724.429          29.000  
G16  21944436.231      718434.2463      -3108.014          40.000  
> 2012  9 14 12 48 35.9990000  0 16                     
G 3  20697039.193      -95320.978         359.979          48.000  
G 8  25345908.651      -94364.2992       1894.790          33.000  
G19  21819545.058     -531037.289        2270.217          46.000  
S38  36695167.322      114740.6142       -257.897          42.000  
G20  23763254.505      691802.9412      -3227.835          32.000  
G 6  21675858.011      201928.9762       -918.603          40.000  
G 7  22350565.916     -362610.0352       1583.465          43.000  
G23  19861117.347      205336.299        -827.775          48.000  
G32  25027119.087      666989.8713      -3292.318          29.000  
G10  23648370.630      -97600.268         248.962          40.000  
S33  36425863.713       76946.4282       -274.414          40.000  
G30  24168055.355      822158.0262      -3583.936          32.000  
G13  20397281.656     -349983.7962       1476.188          44.000  
S35  37748441.053       61653.2012       -262.410          41.000  
G11  25697983.180     -352515.5443       1725.217          29.000  
G16  21945007.674      721541.7102      -3108.715          40.000  
> 2012  9 14 12 48 36.9990000  0 16                     
G 3  20696970.509      -95681.751         360.222          48.000  
G 8  25345547.868      -96259.0633       1894.700          33.000  
G19  21819112.641     -533308.907        2271.257          45.000  
S38  36695215.991      114997.4522       -256.862          42.000  
G20  23763869.643      695029.4252      -3227.430          33.000  
G 6  21676031.169      202846.233        -917.675          41.000  
G 7  22350261.863     -364194.560        1583.962          43.000  
G23  19861274.416      206162.960        -827.618          48.000  
G32  25027745.585      670282.5243      -3292.136          29.000  
G10  23648320.862      -97851.402         249.902          40.000  
S33  36425915.959       77219.4152       -273.166          40.000  
G30  24168740.974      825740.6352      -3583.731          33.000  
G13  20396995.822     -351460.9592       1476.470          44.000  
S35  37748490.560       61914.3992       -262.577          41.000  
G11  25697654.749     -354240.8663       1726.660          29.000  
G16  21945593.600      724649.1002      -3108.147          39.000  
> 2012  9 14 12 48 37.9990000  0 16                     
G 3  20696901.755      -96041.544         358.412          48.000  
G 8  25345186.718      -98153.6202       1892.678          34.000  
G19  21818680.033     -535579.809        2269.733          45.000  
S38  36695265.078      115254.6412       -258.753          42.000  
G20  23764484.745      698256.2212      -3227.072          33.000  
G 6  21676203.821      203764.425        -920.007          41.000  
G 7  22349958.648     -365778.740        1583.022          43.000  
G23  19861432.236      206990.536        -828.938          48.000  
G32  25028372.361      673575.3612      -3294.032          29.000  
G10  23648271.600      -98101.683         248.769          40.000  
S33  36425967.909       77492.7192       -273.719          40.000  
G30  24169417.222      829323.6023      -3582.461          33.000  
G13  20396713.023     -352937.3362       1474.960          44.000  
S35  37748540.066       62175.9142       -262.211          41.000  
G11  25697325.010     -355966.3923       1725.322          28.000  
G16  21946171.463      727756.9952      -3109.394          39.000  
> 2012  9 14 12 48 38.9990000  0 16                     
G 3  20696833.158      -96399.996         357.598          47.000  
G 8  25344826.022     -100047.5692       1892.470          34.000  
G19  21818248.262     -537849.673        2269.180          45.000  
S38  36695314.218      115512.5172       -258.467          42.000  
G20  23765099.761      701483.5942      -3227.685          33.000  
G 6  21676377.469      204683.896        -920.186          41.000  
G 7  22349655.293     -367362.254        1583.209          43.000  
G23  19861590.422      207819.377        -829.740          48.000  
G32  25028999.330      676868.6513      -3294.117          29.000  
G10  23648222.076      -98350.747         248.839          40.000  
S33  36426019.910       77766.7402       -274.727          40.000  
G30  24170101.445      832907.1472      -3582.028          33.000  
G13  20396428.340     -354412.5962       1474.475          43.000  
S35  37748589.642       62438.1242       -263.048          41.000  
G11  25696994.381     -357691.3773       1724.284          28.000  
G16  21946758.593      730865.7592      -3109.354          39.000  
> 2012  9 14 12 48 39.9990000  0 15                     
G 3  20696765.347      -96757.993         358.601          47.000  
G 8  25344465.972     -101941.7962       1894.834          34.000  
G19  21817816.369     -540119.364        2270.184          45.000  
S38  36695363.166      115770.1162       -255.951          42.000  
G20  23765715.038      704710.7322      -3225.972          34.000  
G 6  21676552.616      205603.761        -919.383          42.000  
G 7  22349352.253     -368945.958        1584.033          43.000  
G23  19861748.015      208648.598        -829.062          47.000  
G32  25029624.990      680161.4833      -3291.397          28.000  
G10  23648172.692      -98599.440         249.460          40.000  
S33  36426071.807       78040.5332       -273.542          40.000  
G30  24170782.737      836490.4482      -3581.512          34.000  
G13  20396134.915     -355887.3823       1475.586          43.000  
S35  37748639.445       62700.2612       -261.146          41.000  
G16  21947349.528      733974.4792      -3107.958          39.000  
> 2012  9 14 12 48 40.9990000  0 15                     
G 3  20696696.261      -97116.159         356.581          47.000  
G 8  25344105.782     -103836.9072       1895.834          34.000  
G19  21817383.936     -542389.501        2268.557          45.000  
S38  36695412.131      116026.7872       -258.342          42.000  
G20  23766329.582      707936.9712      -3228.181          34.000  
G 6  21676725.653      206523.412        -921.473          42.000  
G 7  22349048.078     -370530.480        1583.099          43.000  
G23  19861906.864      209477.598        -830.903          47.000  
G32  25030251.924      683453.3873      -3293.501          28.000  
G10  23648123.919      -98848.433         247.035          40.000  
S33  36426124.245       78313.4792       -274.424          40.000  
G30  24171463.592      840072.8922      -3583.756          34.000  
G13  20395844.509     -357363.0373       1473.372          42.000  
S35  37748689.091       62961.5382       -263.104          41.000  
G16  21947938.734      737082.5272      -3109.761          39.000  
> 2012  9 14 12 48 41.9990000  0 14                     
G 3  20696627.874      -97472.311         357.042          47.000  
G 8  25343745.871     -105730.7452       1894.452          34.000  
G19  21816952.427     -544657.924        2269.172          45.000  
S38  36695461.027      116284.8382       -257.486          42.000  
G20  23766944.493      711164.5172      -3227.382          34.000  
G 6  21676900.015      207445.013        -921.070          42.000  
G 7  22348744.217     -372113.653        1583.803          43.000  
G23  19862064.370      210308.522        -830.661          47.000  
G10  23648074.273      -99095.523         247.535          40.000  
S33  36426176.264       78587.9592       -273.546          40.000  
G30  24172144.150      843656.6332      -3583.281          34.000  
G13  20395554.800     -358836.6722       1474.098          42.000  
S35  37748738.807       63224.1522       -261.823          41.000  
G16  21948526.650      740192.1202      -3109.396          40.000  
> 2012  9 14 12 48 42.9990000  0 13                     
G 3  20696560.289      -97827.703         354.186          47.000  
G 8  25343386.519     -107624.6132       1893.834          33.000  
G19  21816520.935     -546925.872        2266.979          45.000  
S38  36695509.818      116542.9312       -258.483          42.000  
G20  23767559.369      714391.623       -3227.747          35.000  
G 6  21677072.982      208367.344        -923.312          42.000  
G 7  22348441.456     -373696.702        1581.698          43.000  
G23  19862222.801      211140.157        -832.863          47.000  
G10  23648025.325      -99341.974         244.131          40.000  
S33  36426228.370       78862.5292       -275.319          40.000  
G30  24172825.180      847240.4312      -3584.755          35.000  
G13  20395266.959     -360309.7492       1471.751          42.000  
S35  37748789.116       63486.8112       -263.529          41.000  
> 2012  9 14 12 48 43.9990000  0 14                     
G 3  20696492.827      -98181.199         354.960          47.000  
G 8  25343026.957     -109517.3632       1895.267          34.000  
G19  21816090.543     -549192.218        2267.673          46.000  
S38  36695558.888      116802.1632       -257.511          42.000  
G20  23768175.170      717620.381       -3225.931          35.000  
G 6  21677246.210      209291.487        -922.173          42.000  
G 7  22348138.747     -375278.513        1583.614          43.000  
G23  19862381.824      211973.606        -831.893          47.000  
G10  23647976.377      -99586.637         247.075          40.000  
S33  36426280.931       79138.2842       -273.643          40.000  
G30  24173506.698      850825.4252      -3583.759          35.000  
G13  20394979.728     -361781.1382       1473.008          42.000  
S35  37748839.006       63750.5642       -261.465          41.000  
G16  21949696.774      746413.1793      -3110.325          40.000  
> 2012  9 14 12 48 44.9990000  0 14                     
G 3  20696425.120      -98535.083         354.311          47.000  
G 8  25342667.326     -111411.1392       1896.671          34.000  
G19  21815659.313     -551459.210        2267.971          46.000  
S38  36695608.184      117060.3502       -257.291          42.000  
G20  23768790.028      720848.052       -3226.665          35.000  
G 6  21677419.299      210215.195        -922.529          43.000  
G 7  22347836.038     -376861.367        1584.016          43.000  
G23  19862539.958      212806.611        -832.074          47.000  
G10  23647926.295      -99831.806         245.805          40.000  
S33  36426332.862       79412.9302       -274.379          40.000  
G30  24174187.414      854409.3052      -3583.758          35.000  
G13  20394694.853     -363253.1322       1473.333          42.000  
S35  37748888.931       64013.1762       -261.306          41.000  
G16  21950284.026      749523.6453      -3109.395          40.000  
> 2012  9 14 12 48 45.9990000  0 14                     
G 3  20696358.006      -98887.614         352.215          47.000  
G 8  25342307.677     -113304.3112       1893.037          34.000  
G19  21815229.253     -553725.155        2266.341          46.000  
S38  36695657.167      117319.2142       -257.661          42.000  
G20  23769405.061      724076.369       -3228.278          36.000  
G 6  21677593.749      211140.192        -925.044          43.000  
G 7  22347532.021     -378443.515        1582.426          43.000  
G23  19862698.825      213640.890        -834.005          46.000  
G10  23647877.312     -100075.735         244.406          39.000  
S33  36426384.620       79688.0752       -274.307          40.000  
G30  24174867.623      857993.8913      -3584.649          35.000  
G13  20394410.240     -364723.9872       1471.108          42.000  
S35  37748938.995       64276.4022       -262.049          41.000  
G16  21950874.541      752634.8832      -3111.171          40.000  
> 2012  9 14 12 48 46.9990000  0 14                     
G 3  20696291.364      -99239.037         350.782          46.000  
G 8  25341947.993     -115197.1593       1892.806          35.000  
G19  21814798.703     -555990.286        2264.661          46.000  
S38  36695706.516      117578.4262       -259.891          42.000  
G20  23770020.268      727305.080       -3229.123          36.000  
G 6  21677768.513      212066.244        -926.826          43.000  
G 7  22347227.427     -380025.227        1581.609          43.000  
G23  19862858.739      214476.204        -836.168          46.000  
G10  23647828.818     -100318.701         242.006          39.000  
S33  36426437.459       79963.5902       -275.608          40.000  
G30  24175547.641      861578.8413      -3585.592          35.000  
G13  20394128.524     -366193.9602       1469.298          42.000  
S35  37748988.886       64539.9722       -263.348          41.000  
G16  21951465.528      755746.7432      -3112.596          40.000  
> 2012  9 14 12 48 47.9990000  0 14                     
G 3  20696224.722      -99589.888         350.246          46.000  
G 8  25341587.646     -117090.1462       1893.167          35.000  
G19  21814367.683     -558255.124        2264.580          46.000  
S38  36695755.656      117837.4392       -259.066          42.000  
G20  23770636.034      730533.595       -3228.882          36.000  
G 6  21677942.805      212992.805        -927.216          43.000  
G 7  22346923.165     -381606.997        1581.409          43.000  
G23  19863018.408      215312.031        -836.120          46.000  
G10  23647780.411     -100561.175         242.497          39.000  
S33  36426489.513       80238.9392       -276.161          40.000  
G30  24176227.467      865163.6752      -3584.395          36.000  
G13  20393845.865     -367663.5842       1468.965          42.000  
S35  37749038.950       64803.4882       -264.147          41.000  
G16  21952056.672      758858.7082      -3112.497          41.000  
> 2012  9 14 12 48 48.9990000  0 14                     
G 3  20696158.742      -99941.154         349.406          46.000  
G 8  25341227.892     -118984.3022       1892.336          35.000  
G19  21813935.912     -560520.664        2263.809          46.000  
S38  36695804.744      118095.2842       -259.902          42.000  
G20  23771251.346      733761.021       -3229.940          36.000  
G 6  21678118.006      213918.897        -927.509          43.000  
G 7  22346619.741     -383189.854        1580.767          42.000  
G23  19863179.334      216147.348        -837.072          46.000  
G10  23647732.633     -100804.184         241.087          39.000  
S33  36426541.113       80513.3082       -276.540          40.000  
G30  24176907.135      868747.3742      -3583.782          36.000  
G13  20393563.084     -369133.8432       1468.237          42.000  
S35  37749088.840       65065.9712       -264.746          41.000  
G16  21952646.733      761969.7412      -3112.594          41.000  
> 2012  9 14 12 48 49.9990000  0 14                     
G 3  20696092.554     -100290.994         348.436          46.000  
G 8  25340867.894     -120877.7492       1892.020          35.000  
G19  21813504.665     -562785.052        2263.696          45.000  
S38  36695854.110      118354.0142       -259.249          42.000  
G20  23771865.838      736989.115       -3230.676          36.000  
G 6  21678292.578      214846.358        -928.964          44.000  
G 7  22346315.147     -384771.925        1580.745          42.000  
G23  19863338.934      216984.025        -837.601          46.000  
G10  23647683.824     -101045.924         240.388          39.000  
S33  36426593.080       80788.5542       -276.220          40.000  
G30  24177587.711      872331.7852      -3584.402          36.000  
G13  20393279.902     -370602.8812       1467.554          42.000  
S35  37749139.115       65329.1572       -263.876          41.000  
G16  21953236.498      765081.7212      -3113.224          41.000  
> 2012  9 14 12 48 50.9990000  0 14                     
G 3  20696026.696     -100639.489         347.757          46.000  
G 8  25340509.065     -122770.6182       1892.122          34.000  
G19  21813073.627     -565048.401        2262.583          45.000  
S38  36695903.966      118613.4902       -259.543          43.000  
G20  23772481.866      740218.4203      -3228.972          37.000  
G 6  21678468.772      215775.106        -929.520          44.000  
G 7  22346010.065     -386353.322        1580.759          42.000  
G23  19863498.865      217821.970        -838.564          45.000  
G10  23647635.801     -101286.391         240.496          38.000  
S33  36426646.443       81064.5502       -275.993          40.000  
G30  24178268.566      875916.8072      -3585.951          36.000  
G13  20392996.476     -372070.8032       1467.458          42.000  
S35  37749189.214       65592.8322       -263.930          41.000  
G16  21953827.886      768194.5322      -3113.636          41.000  
> 2012  9 14 12 48 51.9990000  0 14                     
G 3  20695960.490     -100987.336         347.439          45.000  
G 8  25340149.050     -124663.5813       1893.377          34.000  
G19  21812642.711     -567311.378        2262.831          45.000  
S38  36695953.088      118872.9082       -258.813          42.000  
G20  23773096.428      743447.0682      -3230.450          37.000  
G 6  21678644.234      216704.441        -929.961          44.000  
G 7  22345705.803     -387934.709        1581.578          42.000  
G23  19863658.762      218660.499        -838.653          45.000  
G10  23647586.696     -101526.329         239.319          38.000  
S33  36426699.265       81340.3752       -275.939          40.000  
G30  24178949.718      879501.8222      -3585.858          36.000  
G13  20392713.154     -373538.2722       1467.171          42.000  
S35  37749239.384       65856.3762       -263.237          41.000  
G16  21954418.750      771307.5202      -3113.496          41.000  
> 2012  9 14 12 48 52.9990000  0 14                     
G 3  20695894.424     -101336.373         348.858          45.000  
G 8  25339789.872     -126558.4942       1894.893          34.000  
G19  21812211.778     -569575.849        2263.999          45.000  
S38  36696002.280      119130.3142       -257.853          42.000  
G20  23773711.722      746673.8663      -3226.944          37.000  
G 6  21678820.447      217632.534        -928.572          44.000  
G 7  22345401.785     -389517.982        1582.395          41.000  
G23  19863820.525      219497.768        -837.369          45.000  
G10  23647537.940     -101767.597         241.081          38.000  
S33  36426751.074       81614.2072       -273.635          40.000  
G30  24179630.207      883084.9402      -3584.338          36.000  
G13  20392430.077     -375007.1772       1468.173          42.000  
S35  37749289.326       66118.0252       -261.253          41.000  
G16  21955009.109      774418.7942      -3111.904          42.000  
> 2012  9 14 12 48 53.9990000  0 14                     
G 3  20695828.270     -101683.835         345.862          45.000  
G 8  25339429.822     -128452.5382       1892.944          35.000  
G19  21811780.671     -571839.012        2262.158          45.000  
S38  36696051.001      119388.6882       -259.173          43.000  
G20  23774325.883      749901.4773      -3228.331          37.000  
G 6  21678996.799      218562.145        -931.489          44.000  
G 7  22345096.424     -391100.302        1580.999          41.000  
G23  19863981.399      220336.535        -840.274          44.000  
G10  23647489.307     -102007.387         238.327          37.000  
S33  36426803.093       81889.0292       -275.645          40.000  
G30  24180310.678      886668.8792      -3586.081          36.000  
G13  20392147.819     -376474.6982       1466.175          43.000  
S35  37749339.094       66380.5682       -264.250          41.000  
G16  21955599.485      777531.1742      -3113.818          42.000  
> 2012  9 14 12 48 54.9990000  0 14                     
G 3  20695762.273     -102030.474         346.039          45.000  
G 8  25339069.545     -130346.5372       1892.678          35.000  
G19  21811350.593     -574101.669        2261.750          46.000  
S38  36696100.507      119647.1722       -259.209          42.000  
G20  23774939.921      753129.2102      -3225.995          37.000  
G 6  21679172.086      219492.497        -930.734          44.000  
G 7  22344760.996     -392682.8523       1581.429          41.000  
G23  19864141.749      221176.042        -840.129          44.000  
G10  23647438.823     -102246.505         238.260          37.000  
S33  36426855.531       82163.9992       -275.359          40.000  
G30  24180991.899      890252.966       -3584.560          36.000  
G13  20391865.545     -377941.6622       1466.198          43.000  
S35  37749389.159       66643.2442       -263.253          41.000  
G16  21956189.511      780643.8692      -3113.307          42.000  
> 2012  9 14 12 48 55.9990000  0 14                     
G 3  20695695.910     -102376.247         345.492          45.000  
G 8  25338709.442     -132240.3992       1892.650          35.000  
G19  21810920.445     -576363.723        2262.238          46.000  
S38  36696149.577      119905.8842       -257.793          43.000  
G20  23775554.797      756357.1272      -3227.762          37.000  
G 6  21679348.089      220423.700        -931.226          44.000  
G 7  22344470.781     -394264.9463       1582.163          41.000  
G23  19864302.727      222016.371        -840.208          44.000  
G10  23647384.658     -102484.9913        237.891          37.000  
S33  36426907.620       82439.1172       -275.493          40.000  
G30  24181672.563      893837.200       -3583.874          36.000  
G13  20391584.125     -379407.9252       1465.979          43.000  
S35  37749439.066       66906.1892       -262.675          41.000  
G16  21956778.509      783756.9572      -3112.838          42.000  
> 2012  9 14 12 48 56.9990000  0 14                     
G 3  20695630.873     -102722.972         345.849          44.000  
G 8  25338347.978     -134135.8872       1895.798          35.000  
G19  21810491.414     -578627.027        2262.671          46.000  
S38  36696198.438      120163.0112       -258.242          43.000  
G20  23776167.806      759583.3103      -3226.261          37.000  
G 6  21679524.546      221353.875        -930.438          44.000  
G 7  22344168.317     -395848.5062       1583.262          40.000  
G23  19864465.886      222855.667        -839.717          43.000  
G10  23647326.880     -102724.2593        238.517          36.000  
S33  36426959.884       82712.6242       -273.817          40.000  
G30  24182352.423      897419.809       -3582.804          36.000  
G13  20391302.426     -380875.3702       1466.838          43.000  
S35  37749489.148       67167.6242       -261.988          41.000  
G16  21957367.244      786868.5882      -3112.545          42.000  
> 2012  9 14 12 48 57.9990000  0 14                     
G 3  20695566.115     -103069.132         343.641          44.000  
G 8  25337987.177     -136031.3543       1893.931          36.000  
G19  21810061.440     -580890.046        2260.485          46.000  
S38  36696247.107      120420.0172       -258.901          43.000  
G20  23776781.338      762809.3662      -3228.891          37.000  
G 6  21679700.252      222284.545        -933.118          44.000  
G 7  22343860.896     -397432.1622       1581.019          40.000  
G23  19864629.569      223695.440        -842.445          43.000  
G10  23647272.802     -102963.2522        235.816          36.000  
S33  36427011.484       82985.8672       -275.065          40.000  
G30  24183031.132      901002.259       -3585.490          36.000  
G13  20391020.919     -382342.4682       1464.796          43.000  
S35  37749538.777       67429.0972       -263.082          41.000  
G16  21957955.124      789980.2872      -3114.192          42.000  
> 2012  9 14 12 48 58.9990000  0 15                     
G 3  20695500.188     -103413.092         343.542          44.000  
G 8  25337627.232     -137925.9143       1893.681          36.000  
G19  21809631.223     -583151.165        2260.409          46.000  
S38  36696296.159      120678.6802       -259.551          43.000  
G20  23777394.835      766036.8932      -3227.827          36.000  
G 6  21679875.260      223217.342        -934.099          44.000  
G 7  22343550.352     -399014.2692       1581.215          40.000  
G23  19864791.508      224537.352        -842.716          43.000  
G10  23647223.051     -103200.1532        236.617          35.000  
S33  36427063.660       83260.6262       -275.150          40.000  
G30  24183710.486      904586.177       -3585.012          36.000  
G13  20390739.343     -383807.5912       1464.370          43.000  
S35  37749588.370       67692.1602       -264.091          41.000  
G11  25690421.268     -392248.8323       1730.275          30.000  
G16  21958602.353      793093.8223      -3114.354          42.000  
> 2012  9 14 12 48 59.9990000  0 15                     
G 3  20695435.064     -103755.923         341.476          44.000  
G 8  25337266.658     -139819.7822       1893.120          36.000  
G19  21809201.720     -585411.431        2259.631          46.000  
S38  36696345.945      120937.9602       -260.030          43.000  
G20  23778008.001      769264.8442      -3228.202          36.000  
G 6  21680050.809      224151.226        -934.854          44.000  
G 7  22343247.381     -400595.8872       1580.823          40.000  
G23  19864955.033      225380.338        -844.055          42.000  
G10  23647174.400     -103436.0183        235.633          35.000  
S33  36427116.377       83535.8112       -276.138          40.000  
G30  24184390.155      908170.542       -3584.677          36.000  
G13  20390457.330     -385271.7892       1463.638          43.000  
S35  37749638.505       67955.6912       -264.159          41.000  
G11  25690090.342     -393979.5293       1730.329          30.000  
G16  21959109.125      796207.7433      -3114.245          42.000  
> 2012  9 14 12 49  0.9990000  0 15                     
G 3  20695368.945     -104098.523         343.366          44.000  
G 8  25336906.852     -141714.1802       1895.804          36.000  
G19  21808771.712     -587671.755        2261.199          46.000  
S38  36696394.648      121196.6972       -257.401          43.000  
G20  23778621.376      772492.2932      -3225.564          36.000  
G 6  21680226.341      225085.281        -933.278          44.000  
G 7  22342941.863     -402177.9252       1583.174          40.000  
G23  19865118.786      226223.461        -842.211          42.000  
G10  23647122.084     -103671.7842        237.067          35.000  
S33  36427168.850       83810.5802       -274.231          40.000  
G30  24185069.125      911754.404       -3582.931          35.000  
G13  20390176.381     -386735.992        1465.226          43.000  
S35  37749688.866       68218.7672       -261.863          41.000  
G11  25689760.533     -395711.1763       1732.772          30.000  
G16  21959704.334      799321.4992      -3113.693          42.000  
> 2012  9 14 12 49  1.9990000  0 15                     
G 3  20695305.444     -104441.806         342.469          43.000  
G 8  25336547.046     -143609.9552       1894.586          36.000  
G19  21808341.582     -589933.034        2260.153          46.000  
S38  36696443.579      121453.9722       -257.948          43.000  
G20  23779234.786      775718.3612      -3226.238          36.000  
G 6  21680401.559      226018.591        -934.725          44.000  
G 7  22342637.269     -403761.3072       1582.470          40.000  
G23  19865282.801      227065.868        -843.735          41.000  
G10  23647072.735     -103908.3362        234.642          34.000  
S33  36427220.503       84084.0912       -274.083          40.000  
G30  24185747.415      915336.899       -3583.832          35.000  
G13  20389894.595     -388201.086        1463.700          43.000  
S35  37749738.913       68480.5862       -262.993          41.000  
G11  25689430.567     -397444.3402       1731.460          30.000  
G16  21960288.637      802434.1292      -3113.484          42.000  
> 2012  9 14 12 49  2.9990000  0 16                     
G 3  20695242.327     -104782.502         339.766          43.000  
G 8  25336187.484     -145503.9522       1892.388          37.000  
G19  21807911.451     -592192.039        2258.439          46.000  
S38  36696492.265      121712.9602       -258.928          43.000  
G20  23779848.004      778946.2912      -3227.169          36.000  
G 6  21680576.863      226954.440        -935.951          44.000  
G 7  22342332.449     -405342.7522       1581.297          40.000  
G23  19865446.920      227910.759        -845.109          41.000  
G32  25044029.936      755872.6343      -3290.279          29.000  
G10  23647026.736     -104142.4372        234.694          34.000  
S33  36427273.010       84359.4782       -275.385          40.000  
G30  24186426.107      918921.263       -3583.876          35.000  
G13  20389612.285     -389663.821        1461.906          43.000  
S35  37749788.908       68744.3102       -263.904          41.000  
G11  25689101.124     -399176.0073       1729.901          30.000  
G16  21960877.111      805548.8102      -3115.034          42.000  
> 2012  9 14 12 49  3.9990000  0 16                     
G 3  20695179.314     -105123.019         340.948          42.000  
G 8  25335827.521     -147398.4382       1895.271          37.000  
G19  21807482.176     -594451.145        2259.815          46.000  
S38  36696541.457      121971.2972       -257.208          43.000  
G20  23780462.077      782173.6612      -3226.775          36.000  
G 6  21680752.919      227890.388        -935.758          44.000  
G 7  22342028.257     -406924.6802       1582.946          40.000  
G23  19865610.760      228755.758        -844.686          41.000  
G32  25044657.463      759162.6673      -3288.463          29.000  
G10  23646979.883     -104376.4912        234.145          35.000  
S33  36427324.995       84634.3952       -273.818          40.000  
G30  24187104.903      922505.107       -3582.074          34.000  
G13  20389329.958     -391126.583        1463.573          43.000  
S35  37749838.938       69007.4292       -262.346          41.000  
G11  25688771.559     -400908.3903       1733.900          30.000  
G16  21961467.260      808663.1812      -3112.955          42.000  
> 2012  9 14 12 49  4.9990000  0 16                     
G 3  20695117.418     -105463.039         340.171          42.000  
G 8  25335466.773     -149293.1942       1895.057          37.000  
G19  21807052.482     -596710.014        2260.049          46.000  
S38  36696590.492      122229.4082       -256.688          43.000  
G20  23781075.470      785400.8262      -3225.936          36.000  
G 6  21680928.555      228826.817        -935.732          44.000  
G 7  22341723.733     -408506.7682       1583.356          40.000  
G23  19865774.548      229601.197        -844.844          40.000  
G32  25045284.031      762452.3373      -3288.276          30.000  
G10  23646932.889     -104610.1252        233.735          34.000  
S33  36427377.555       84909.2342       -273.812          40.000  
G30  24187783.210      926088.753       -3582.330          34.000  
G13  20389038.976     -392589.1613       1463.217          43.000  
S35  37749888.305       69270.3582       -261.962          41.000  
G11  25688440.808     -402641.3663       1734.935          30.000  
G16  21962056.833      811777.5802      -3112.806          42.000  
> 2012  9 14 12 49  5.9990000  0 16                     
G 3  20695054.702     -105802.536         339.616          42.000  
G 8  25335106.181     -151188.1873       1896.856          37.000  
G19  21806622.334     -598968.691        2259.094          46.000  
S38  36696639.649      122487.3362       -257.260          43.000  
G20  23781688.775      788627.7642      -3227.643          36.000  
G 6  21681104.349      229763.667        -936.502          44.000  
G 7  22341419.872     -410089.0112       1582.300          40.000  
G23  19865938.057      230447.081        -845.590          40.000  
G32  25045909.708      765741.6053      -3287.895          30.000  
G10  23646883.714     -104843.3542        235.668          34.000  
S33  36427429.434       85183.7552       -273.087          40.000  
G30  24188460.488      929672.214       -3582.151          34.000  
G13  20388754.276     -394051.2893       1462.827          43.000  
S35  37749937.828       69532.9722       -261.337          41.000  
G11  25688111.941     -404374.8032       1733.440          31.000  
G16  21962646.947      814891.9842      -3114.278          42.000  
> 2012  9 14 12 49  6.9990000  0 15                     
G 3  20694993.923     -106141.092         337.307          41.000  
G 8  25334746.288     -153082.9762       1893.546          37.000  
G19  21806193.076     -601226.703        2256.518          46.000  
S38  36696688.789      122745.4492       -259.303          43.000  
G20  23782302.081      791854.465       -3227.822          36.000  
G 6  21681280.718      230701.417        -938.875          43.000  
G 7  22341116.605     -411670.9232       1580.866          40.000  
G32  25046535.455      769030.8393      -3290.699          30.000  
G10  23646818.433     -105075.3653        231.759          34.000  
S33  36427481.924       85458.4682       -275.746          40.000  
G30  24189380.551      933256.3453      -3584.802          33.000  
G13  20388475.107     -395512.6923       1460.502          43.000  
S35  37749987.858       69795.7472       -264.326          41.000  
G11  25687783.440     -406108.3133       1733.596          31.000  
G16  21963238.230      818006.8302      -3115.965          42.000  
> 2012  9 14 12 49  7.9990000  0 15                     
G 8  25334385.173     -154977.4702       1893.489          37.000  
G19  21805764.394     -603483.967        2256.036          46.000  
S38  36696738.156      123003.8692       -259.436          43.000  
G20  23782915.002      795081.931       -3228.242          36.000  
G 6  21681457.332      231640.119        -940.172          43.000  
G23  19866073.784         839.1193       -848.498          41.000  
G 7  22340813.687     -413252.4732       1580.527          40.000  
G32  25047163.262      772320.4233      -3289.226          30.000  
G10  23646770.288     -105307.0103        229.508          34.000  
S33  36427533.647       85733.5382       -275.502          40.000  
G30  24190061.493      936840.5833      -3585.922          33.000  
G13  20388191.018     -396973.3332       1459.869          43.000  
S35  37750037.940       70058.8822       -263.385          41.000  
G11  25687453.265     -407841.8352       1733.000          31.000  
G16  21963828.344      821122.2142      -3116.155          42.000  
> 2012  9 14 12 49  8.9990000  0 16                     
G 3  20694738.207     -106814.7133        336.164          41.000  
G 8  25334024.250     -156871.6732       1894.714          37.000  
G19  21805335.223     -605740.483        2256.346          46.000  
S38  36696787.557      123262.7022       -259.414          43.000  
G20  23783527.993      798309.724       -3227.790          36.000  
G 6  21681633.195      232579.805        -939.779          43.000  
G23  19866240.050        1687.8853       -849.342          40.000  
G 7  22340510.960     -414833.6722       1580.861          40.000  
G32  25047788.992      775610.1563      -3289.779          30.000  
G10  23646738.825     -105537.5493        230.520          34.000  
S33  36427585.718       86008.9402       -275.849          40.000  
G30  24190746.013      940424.8962      -3583.874          33.000  
G13  20387906.980     -398433.1782       1459.092          43.000  
S35  37750088.337       70322.3132       -263.450          42.000  
G11  25687123.194     -409575.3862       1731.957          31.000  
G16  21964417.551      824238.1342      -3116.084          42.000  
> 2012  9 14 12 49  9.9990000  0 16                     
G 3  20694672.176     -107150.9253        336.612          41.000  
G 8  25333663.868     -158766.2982       1895.331          37.000  
G19  21804905.756     -607996.933        2257.720          46.000  
S38  36696836.627      123521.3312       -256.892          43.000  
G20  23784141.159      801537.192       -3225.665          36.000  
G 6  21681809.477      233519.785        -939.259          43.000  
G23  19866395.881        2536.8142       -848.511          40.000  
G 7  22340207.955     -416415.1302       1582.167          40.000  
G32  25048415.123      778899.5043      -3288.007          30.000  
G10  23646682.129     -105767.7603        232.323          35.000  
S33  36427637.825       86284.0092       -274.044          41.000  
G30  24191427.304      944008.9162      -3585.648          33.000  
G13  20387626.712     -399892.8562       1460.493          43.000  
S35  37750138.192       70585.2942       -262.238          42.000  
G11  25686792.774     -411309.5072       1734.140          30.000  
G16  21965007.979      827353.9212      -3114.439          42.000  
> 2012  9 14 12 49 10.9990000  0 16                     
G 3  20694602.340     -107487.1922        333.666          41.000  
G 8  25333303.731     -160661.7432       1894.424          37.000  
G19  21804475.783     -610253.793        2254.762          46.000  
S38  36696885.872      123779.1472       -260.231          43.000  
G20  23784753.819      804763.752       -3229.320          36.000  
G 6  21681986.370      234459.584        -941.699          43.000  
G23  19866554.625        3385.5622       -851.181          40.000  
G 7  22339903.867     -417997.3832       1579.604          40.000  
G32  25049041.132      782187.6353      -3288.287          30.000  
G10  23646639.219     -105998.3662        226.770          35.000  
S33  36427690.385       86558.3342       -275.827          41.000  
G30  24192109.695      947592.1292      -3584.172          33.000  
G13  20387345.171     -401352.8862       1457.522          43.000  
S35  37750187.593       70847.3492       -264.513          42.000  
G11  25686462.581     -413044.7552       1734.612          30.000  
G16  21965598.634      830469.0722      -3117.850          42.000  
> 2012  9 14 12 49 11.9990000  0 16                     
G 3  20694538.420     -107821.6982        335.817          41.000  
G 8  25332943.209     -162556.1472       1896.821          37.000  
G19  21804046.333     -612509.148        2257.398          46.000  
S38  36696934.488      124037.9442       -257.235          43.000  
G20  23785366.828      807991.401       -3225.312          35.000  
G 6  21682163.193      235401.103        -940.557          43.000  
G23  19866712.846        4236.0222       -847.770          40.000  
G 7  22339599.448     -419578.5092       1583.401          40.000  
G32  25049667.787      785476.8433      -3288.985          30.000  
G10  23646597.339     -106227.2932        230.315          35.000  
S33  36427742.456       86833.9312       -273.892          41.000  
G30  24192792.522      951176.3012      -3583.985          33.000  
G13  20387065.897     -402811.3382       1460.972          43.000  
S35  37750237.641       71110.4802       -261.188          42.000  
G11  25686132.458     -414779.3112       1737.506          30.000  
G16  21966188.626      833585.5102      -3115.220          42.000  
> 2012  9 14 12 49 12.9990000  0 16                     
G 3  20694471.934     -108156.1002        334.236          40.000  
G 8  25332582.077     -164451.729        1894.488          37.000  
G19  21803616.569     -614764.729        2254.594          45.000  
S38  36696983.488      124296.0272       -258.917          43.000  
G20  23785979.854      811218.450       -3227.255          35.000  
G 6  21682340.365      236342.661        -942.422          43.000  
G23  19866871.835        5086.4842       -851.109          40.000  
G 7  22339294.558     -421160.2022       1581.667          40.000  
G32  25050290.795      788765.2283      -3289.380          30.000  
G10  23646547.833     -106456.2212        228.898          35.000  
S33  36427794.911       87108.9002       -275.367          41.000  
G30  24193476.117      954759.9572      -3584.795          33.000  
G13  20386786.397     -404269.9482       1458.326          43.000  
S35  37750287.827       71372.9592       -262.729          42.000  
G11  25685802.439     -416514.7523       1737.120          30.000  
G16  21966779.036      836701.5662      -3116.823          42.000  
> 2012  9 14 12 49 13.9990000  0 16                     
G 3  20694405.240     -108489.8952        332.490          40.000  
G 8  25332221.486     -166346.927        1894.834          37.000  
G19  21803186.927     -617019.982        2253.766          45.000  
S38  36697032.698      124554.1602       -258.750          43.000  
G20  23786592.740      814445.355       -3226.967          35.000  
G 6  21682517.799      237284.746        -943.523          42.000  
G23  19867030.493        5937.4862       -852.566          40.000  
G 7  22338990.383     -422741.9402       1580.917          40.000  
G32  25050914.029      792053.2473      -3289.764          30.000  
G10  23646505.324     -106684.7152        227.231          35.000  
S33  36427847.611       87383.6942       -275.939          41.000  
G30  24194157.181      958343.4463      -3583.686          33.000  
G13  20386506.496     -405728.1432       1456.694          43.000  
S35  37750337.630       71635.3742       -263.134          41.000  
G11  25685471.828     -418250.6183       1736.311          29.000  
G16  21967369.185      839817.7202      -3117.485          42.000  
> 2012  9 14 12 49 14.9990000  0 16                     
G 3  20694339.243     -108823.2352        332.511          40.000  
G 8  25331860.336     -168241.9303       1895.389          37.000  
G19  21802757.215     -619275.049        2254.161          45.000  
S38  36697081.419      124812.2482       -259.455          43.000  
G20  23787206.360      817672.4913      -3227.835          35.000  
G 6  21682694.011      238227.243        -943.413          42.000  
G23  19867190.738        6788.8772       -852.850          40.000  
G 7  22338685.772     -424323.8522       1581.828          41.000  
G32  25051541.574      795341.0223      -3291.093          30.000  
G10  23646458.138     -106912.8412        226.678          36.000  
S33  36427899.456       87658.2682       -274.879          41.000  
G30  24194838.926      961926.6832      -3581.601          34.000  
G13  20386226.350     -407186.0802       1456.466          43.000  
S35  37750387.852       71897.6652       -262.828          42.000  
G11  25685140.902     -419987.0873       1736.162          29.000  
G16  21967959.177      842933.8392      -3116.390          42.000  
> 2012  9 14 12 49 15.9990000  0 16                     
G 3  20694274.241     -109155.4992        331.531          39.000  
G 8  25331499.902     -170137.0562       1895.238          37.000  
G19  21802326.893     -621529.328        2253.991          45.000  
S38  36697131.065      125070.7832       -258.140          43.000  
G20  23787820.101      820899.5182      -3227.553          35.000  
G 6  21682870.712      239170.759        -944.084          42.000  
G23  19867350.791        7641.3132       -852.396          40.000  
G 7  22338381.336     -425905.3502       1580.771          41.000  
G32  25052166.257      798629.1313      -3290.592          29.000  
G10  23646413.885     -107139.9812        227.041          36.000  
S33  36427951.649       87933.3492       -274.940          41.000  
G30  24195521.300      965510.3502      -3583.668          34.000  
G13  20385946.536     -408643.1592       1456.532          43.000  
S35  37750437.289       72160.4852       -262.978          41.000  
G11  25684810.552     -421723.4273       1737.203          29.000  
G16  21968549.152      846050.5582      -3116.828          42.000  
> 2012  9 14 12 49 16.9990000  0 16                     
G 3  20694208.593     -109487.2152        329.930          39.000  
G 8  25331139.345     -172032.3882       1894.838          37.000  
G19  21801896.832     -623783.346        2253.251          45.000  
S38  36697179.489      125329.1372       -258.904          43.000  
G20  23788434.698      824126.3622      -3226.453          35.000  
G 6  21683047.954      240114.766        -945.366          42.000  
G23  19867511.386        8494.1772       -854.357          40.000  
G 7  22338076.987     -427486.9682       1580.984          41.000  
G32  25052791.742      801916.7773      -3289.222          30.000  
G10  23646370.242     -107366.7292        225.958          36.000  
S33  36428004.227       88208.2682       -276.029          41.000  
G30  24196203.027      969093.7762      -3584.793          34.000  
G13  20385665.971     -410099.9132       1455.390          44.000  
S35  37750487.528       72423.2252       -263.364          42.000  
G11  25684479.992     -423460.1873       1736.764          29.000  
G16  21969139.684      849167.3032      -3117.384          42.000  
> 2012  9 14 12 49 17.9990000  0 16                     
G 3  20694142.317     -109817.8522        330.263          39.000  
G 8  25330779.225     -173927.3512       1895.391          37.000  
G19  21801465.795     -626036.536        2253.158          45.000  
S38  36697228.751      125587.9492       -259.306          43.000  
G20  23789048.597      827353.5892      -3226.143          35.000  
G 6  21683223.939      241059.811        -945.363          42.000  
G23  19867672.347        9348.0852       -854.967          40.000  
G 7  22337772.969     -429068.1422       1580.346          41.000  
G32  25053420.561      805204.7482      -3288.280          30.000  
G10  23646326.826     -107592.4762        225.354          36.000  
S33  36428056.246       88483.4282       -275.163          41.000  
G30  24196884.755      972677.6462      -3584.522          34.000  
G13  20385384.918     -411555.7952       1455.530          43.000  
S35  37750537.592       72686.3642       -262.971          42.000  
G11  25684149.555     -425196.9543       1738.742          30.000  
G16  21969730.514      852284.6552      -3117.398          42.000  
> 2012  9 14 12 49 18.9990000  0 16                     
G 3  20694076.233     -110149.6232        330.596          39.000  
G 8  25330418.215     -175824.2412       1895.614          37.000  
G19  21801036.397     -628291.191        2253.761          45.000  
S38  36697277.909      125845.0222       -257.844          43.000  
G20  23789661.850      830578.9412      -3224.198          35.000  
G 6  21683399.942      242003.626        -945.298          41.000  
G23  19867831.946       10200.7652       -853.151          40.000  
G 7  22337467.834     -430651.625        1582.000          41.000  
G32  25054043.953      808490.7493      -3287.950          30.000  
G10  23646282.642     -107819.5252        225.833          36.000  
S33  36428107.829       88756.6582       -274.304          41.000  
G30  24197565.802      976259.6642      -3582.720          33.000  
G13  20385105.034     -413013.0412       1456.400          44.000  
S35  37750587.064       72947.6722       -261.768          42.000  
G11  25683818.995     -426935.8883       1738.914          30.000  
G16  21970320.261      855399.851       -3116.417          42.000  
> 2012  9 14 12 49 19.9990000  0 16                     
G 3  20694010.708     -110480.0802        329.441          39.000  
G 8  25330057.589     -177720.5782       1894.323          36.000  
G19  21800606.319     -630544.812        2252.398          45.000  
S38  36697326.891      126102.7672       -259.183          43.000  
G20  23790274.980      833804.8453      -3227.428          35.000  
G 6  21683534.588      242948.5373       -947.510          41.000  
G23  19867992.366       11054.6632       -855.830          40.000  
G 7  22337162.665     -432233.965        1580.819          41.000  
G32  25054668.409      811777.1223      -3286.547          30.000  
G10  23646237.672     -108045.3582        223.806          36.000  
S33  36428160.493       89030.5232       -275.448          41.000  
G30  24198247.041      979842.2483      -3584.392          34.000  
G13  20384825.569     -414469.1982       1454.188          43.000  
S35  37750636.745       73209.6452       -263.581          42.000  
G11  25683488.383     -428674.4923       1738.118          31.000  
G16  21970909.677      858516.365       -3118.003          42.000  
> 2012  9 14 12 49 20.9990000  0 16                     
G 3  20693944.816     -110809.0412        328.004          39.000  
G 8  25329697.434     -179616.0912       1894.542          36.000  
G19  21800177.393     -632797.197        2251.507          44.000  
S38  36697375.665      126361.2742       -260.074          43.000  
G20  23790889.769      837031.5513      -3227.301          35.000  
G 6  21683708.008      243895.0673       -947.544          41.000  
G23  19868153.117       11910.0262       -856.951          41.000  
G 7  22336857.618     -433815.428        1581.056          41.000  
G32  25055294.121      815064.1993      -3288.198          31.000  
G10  23646193.244     -108269.7752        223.992          36.000  
S33  36428212.914       89305.2962       -274.643          41.000  
G30  24198928.786      983425.6912      -3583.759          34.000  
G13  20384546.121     -415924.0452       1454.158          44.000  
S35  37750686.705       73472.4932       -263.373          42.000  
G11  25683158.330     -430412.5652       1736.453          31.000  
G16  21971498.884      861633.897       -3118.971          42.000  
> 2012  9 14 12 49 21.9990000  0 16                     
G 3  20693880.145     -111137.6852        327.500          39.000  
G 8  25329336.337     -181512.0742       1894.892          36.000  
G19  21799748.571     -635049.554        2251.351          45.000  
S38  36697424.298      126619.2902       -258.446          43.000  
G20  23791504.052      840257.8543      -3226.841          35.000  
G 6  21683912.665      244841.9473       -948.603          41.000  
G23  19868313.345       12765.6232       -856.631          41.000  
G 7  22336552.239     -435397.265        1580.802          41.000  
G32  25055920.078      818350.7293      -3287.070          31.000  
G10  23646148.886     -108494.0772        223.561          36.000  
S33  36428264.776       89579.7092       -275.615          41.000  
G30  24199610.182      987008.6832      -3583.812          34.000  
G13  20384266.464     -417378.8062       1454.505          44.000  
S35  37750736.734       73734.8842       -263.782          42.000  
G11  25682827.614     -432151.4133       1738.767          31.000  
G16  21972088.300      864751.234       -3117.906          42.000  
> 2012  9 14 12 49 22.9990000  0 16                     
G 3  20693813.904     -111466.7662        329.347          39.000  
G 8  25328974.925     -183409.2132       1897.850          36.000  
G19  21799320.029     -637302.634        2252.938          44.000  
S38  36697473.648      126876.1392       -256.897          43.000  
G20  23792118.142      843483.0072      -3226.998          35.000  
G 6  21684089.226      245788.2432       -946.131          41.000  
G23  19868473.748       13620.7192       -855.643          41.000  
G 7  22336240.822     -436979.3793       1583.286          41.000  
G32  25056545.616      821635.9342      -3285.628          31.000  
G10  23646104.824     -108718.8802        224.616          37.000  
S33  36428316.586       89853.0212       -272.974          41.000  
G30  24200290.619      990590.5412      -3581.573          34.000  
G13  20383987.138     -418834.2272       1454.844          44.000  
S35  37750786.433       73996.1812       -261.121          42.000  
G11  25682496.635     -433891.6863       1742.398          31.000  
G16  21972676.826      867867.674       -3116.291          42.000  
