     3.01           OBSERVATION DATA    M: Mixed            RINEX VERSION / TYPE
RTKCONV 2.4.2                           20170629 131244 UTC PGM / RUN BY / DATE 
log: F:\Research\Utilities\ParseUBX\ParseUBX\6t-nosbasinte  COMMENT             
format: u-blox                                              COMMENT             
                                                            MARKER NAME         
                                                            MARKER NUMBER       
                                                            MARKER TYPE         
                                                            OBSERVER / AGENCY   
                                                            REC # / TYPE / VERS 
                                                            ANT # / TYPE        
  -741992.0872 -5462236.1534  3198025.1480                  APPROX POSITION XYZ 
        0.0000        0.0000        0.0000                  ANTENNA: DELTA H/E/N
G    4 C1C L1C D1C S1C                                      SYS / # / OBS TYPES 
S    4 C1C L1C D1C S1C                                      SYS / # / OBS TYPES 
  1980     1    11    12    44   52.5900000     GPS         TIME OF FIRST OBS   
  2012     9    14    12    52   27.0000000     GPS         TIME OF LAST OBS    
G                                                           SYS / PHASE SHIFT   
S                                                           SYS / PHASE SHIFT   
                                                            END OF HEADER       
> 1980  1 11 12 44 52.5900000  0  1                     
G 7  21361083.113       -9907.8332       1575.997          43.000  
> 1980  1 11 12 44 53.0000000  0  2                     
G 7  21360959.932      -10553.2992       1574.148          43.000  
G13  19405169.490      -15954.8282       1562.323          46.000  
> 1980  1 11 12 44 54.0000000  0  2                     
G 7  21360660.312      -12127.8072       1573.512          43.000  
G13  19404871.614      -17516.9472       1561.505          46.000  
> 1980  1 11 12 44 55.0000000  0  2                     
G 7  21360360.150      -13702.1392       1574.467          43.000  
G13  19404574.455      -19078.4612       1560.826          46.000  
> 1980  1 11 12 44 56.0000000  0 11                     
G32  23831395.581       63505.8622      -3342.048          33.000  
G16  20758914.158       23341.5672      -3079.016          43.000  
G20  22570927.562       29958.5692      -3246.939          36.000  
G 7  21360061.036      -15276.6962       1574.987          43.000  
G 3  19658160.076       36259.3432        494.141          45.000  
G30  22961033.723       63563.4122      -3602.942          35.000  
G10  22604492.096      -25963.4692        358.977          38.000  
G 6  20583348.791       68799.3212       -795.203          43.000  
G13  19404277.417      -20639.7882       1561.107          46.000  
G19  20859263.519        4929.6162       2339.341          43.000  
G23  18772212.592      -11944.6202       -708.392          46.000  
> 1980  1 11 12 44 57.0000000  0 11                     
G32  23832031.554       66849.3132      -3344.760          32.000  
G16  20759500.607       26420.9882      -3080.431          43.000  
G20  22571549.418       33206.2082      -3247.972          36.000  
G 7  21359760.683      -16851.0492       1574.225          43.000  
G 3  19658066.910       35765.9562        492.558          45.000  
G30  22961717.161       67165.8882      -3602.896          36.000  
G10  22604425.070      -26323.0012        358.201          38.000  
G 6  20583500.189       69595.1762       -797.345          43.000  
G13  19403980.571      -22200.4962       1559.770          46.000  
G19  20858817.928        2590.5272       2339.059          43.000  
G23  18772347.813      -11235.7832       -709.564          46.000  
> 1980  1 11 12 44 58.0000000  0 11                     
G32  23832666.027       70192.9972      -3340.833          32.000  
G16  20760086.533       29500.9582      -3079.663          43.000  
G20  22572165.637       36454.1752      -3249.350          36.000  
G 7  21359461.150      -18425.0592       1572.804          43.000  
G 3  19657973.464       35273.5562        491.595          45.000  
G30  22962403.304       70768.6152      -3603.581          36.000  
G10  22604355.024      -26681.6312        357.441          38.000  
G 6  20583651.360       70391.9822       -797.958          43.000  
G13  19403683.499      -23760.4362       1559.467          46.000  
G19  20858372.930         252.1242       2337.658          43.000  
G23  18772482.215      -10526.0172       -710.298          46.000  
> 1980  1 11 12 44 59.0000000  0 11                     
G32  23833302.174       73536.7102      -3343.362          33.000  
G16  20760672.825       32581.3182      -3080.764          44.000  
G20  22572783.759       39702.3182      -3247.687          36.000  
G 7  21359161.477      -19998.8232       1573.628          43.000  
G 3  19657879.966       34782.0422        491.116          45.000  
G30  22963089.237       74371.5772      -3602.101          36.000  
G10  22604286.811      -27039.5082        356.941          38.000  
G 6  20583802.985       71189.6442       -798.216          43.000  
G13  19403387.281      -25319.7272       1559.100          46.000  
G19  20857927.810       -2085.6972       2337.933          43.000  
G23  18772617.332       -9815.4542       -711.167          46.000  
> 1980  1 11 12 45  0.0000000  0 11                     
G32  23833938.828       76880.2082      -3343.480          33.000  
G16  20761259.223       35661.8882      -3080.975          43.000  
G20  22573401.322       42950.4352      -3247.108          36.000  
G 7  21358861.927      -21572.5932       1574.289          43.000  
G 3  19657786.240       34291.1612        490.273          44.000  
G30  22963774.943       77974.4902      -3602.977          36.000  
G10  22604218.459      -27396.8462        357.610          38.000  
G 6  20583955.081       71987.9092       -798.789          43.000  
G13  19403090.593      -26878.5962       1558.391          46.000  
G19  20857483.266       -4423.1982       2337.377          43.000  
G23  18772753.164       -9104.2842       -711.585          46.000  
> 1980  1 11 12 45  1.0000000  0 13                     
G32  23834574.766       80223.3442      -3341.852          33.000  
G16  20761845.236       38742.3442      -3081.347          43.000  
G20  22574019.339       46198.2012      -3248.780          36.000  
S38  35627501.873       47695.9752       -275.638          45.000  
S33  35357551.751       15873.5502       -290.994          42.000  
G 7  21358562.673      -23146.6712       1572.916          43.000  
G 3  19657692.568       33800.6372        489.027          44.000  
G30  22964460.527       81577.0522      -3604.730          36.000  
G10  22604150.333      -27753.9352        355.844          38.000  
G 6  20584107.422       72786.4572       -799.866          43.000  
G13  19402793.747      -28437.3512       1557.713          46.000  
G19  20857038.442       -6760.6522       2336.077          43.000  
G23  18772888.316       -8392.8492       -712.744          46.000  
> 2012  9 14 12 45  2.0000000  0 13                     
G32  23835211.158       83566.4462      -3342.779          33.000  
G16  20762431.458       41823.2152      -3081.596          44.000  
G20  22574637.408       49446.1942      -3248.390          36.000  
S38  35627553.805       47970.9882       -275.674          45.000  
S33  35357606.649       16163.7742       -291.179          42.000  
G 7  21358262.704      -24720.5032       1573.399          43.000  
G 3  19657599.366       33311.0082        488.954          44.000  
G30  22965146.233       85179.8772      -3602.821          36.000  
G10  22604081.981      -28110.2302        355.486          38.000  
G 6  20584259.326       73585.8582       -800.535          42.000  
G13  19402497.355      -29995.4582       1556.924          46.000  
G19  20856593.130       -9097.5152       2336.213          43.000  
G23  18773023.695       -7680.5922       -712.828          46.000  
> 2012  9 14 12 45  3.0000000  0 13                     
G32  23835847.533       86909.5732      -3343.830          33.000  
G16  20763018.170       44904.4532      -3081.828          44.000  
G20  22575255.722       52694.2852      -3248.028          36.000  
S38  35627606.330       48246.1072       -275.572          45.000  
S33  35357661.233       16454.1412       -290.552          42.000  
G 7  21357963.206      -26294.1422       1573.240          42.000  
G 3  19657506.601       32822.1862        488.266          44.000  
G30  22965832.097       88782.8002      -3602.386          36.000  
G10  22604014.344      -28465.8012        355.254          37.000  
G 6  20584411.178       74386.0222       -801.284          42.000  
G13  19402200.667      -31552.9512       1556.737          46.000  
G19  20856148.638      -11433.8622       2335.309          43.000  
G23  18773159.423       -6967.5852       -714.680          46.000  
> 2012  9 14 12 45  4.0000000  0 14                     
G32  23836483.192       90252.6802      -3343.981          33.000  
G16  20763604.619       47986.0292      -3082.181          44.000  
G20  22575873.721       55942.5212      -3248.624          36.000  
S38  35627659.186       48521.3792       -276.154          45.000  
S33  35357716.254       16744.6762       -291.016          42.000  
G 7  21357663.917      -27867.6252       1573.538          42.000  
G 3  19657413.155       32334.1712        487.885          44.000  
G30  22966516.931       92385.8412      -3604.088          36.000  
G10  22603946.759      -28820.7372        352.948          37.000  
G 8  24365008.581      -16579.4573       1866.233          30.000  
G 6  20584563.919       75186.9582       -801.345          42.000  
G13  19401903.699      -33109.8782       1556.376          46.000  
G19  20855704.373      -13769.7242       2334.795          43.000  
G23  18773295.343       -6253.8242       -714.629          46.000  
> 2012  9 14 12 45  5.0000000  0 14                     
G32  23837118.799       93593.6562      -3340.176          33.000  
G16  20764190.789       51065.7742      -3080.319          44.000  
G20  22576491.127       59188.7182      -3246.371          36.000  
S38  35627710.682       48794.6972       -273.572          45.000  
S33  35357771.170       17033.3672       -289.240          42.000  
G 7  21357363.913      -29443.1382       1574.612          42.000  
G 3  19657320.197       31844.7772        487.864          45.000  
G30  22967202.323       95986.8552      -3600.951          36.000  
G10  22603878.948      -29177.0782        356.105          37.000  
G 8  24364652.667      -18447.6033       1867.211          30.000  
G 6  20584715.806       75986.4812       -799.959          42.000  
G13  19401607.534      -34668.4042       1558.011          46.000  
G19  20855259.794      -16107.2352       2336.939          43.000  
G23  18773430.722       -5541.5032       -713.130          46.000  
> 2012  9 14 12 45  6.0000000  0 14                     
G32  23837754.894       96934.3072      -3339.907          33.000  
G16  20764776.942       54145.6102      -3080.398          44.000  
G20  22577109.005       62434.7052      -3247.273          36.000  
S38  35627762.631       49067.8222       -274.001          45.000  
S33  35357826.400       17322.0012       -289.085          42.000  
G 7  21357063.542      -31018.7102       1575.541          42.000  
G 3  19657227.554       31355.9462        487.591          45.000  
G30  22967887.418       99587.7332      -3600.554          36.000  
G10  22603810.368      -29533.0192        355.341          37.000  
G 8  24364297.659      -20315.8203       1868.305          30.000  
G 6  20584868.199       76786.5122       -800.835          42.000  
G13  19401311.054      -36226.6012       1557.269          46.000  
G19  20854814.359      -18444.5312       2335.699          43.000  
G23  18773566.763       -4828.7072       -713.714          46.000  
> 2012  9 14 12 45  7.0000000  0 14                     
G32  23838390.274      100274.9112      -3341.322          33.000  
G16  20765363.165       57225.7702      -3081.414          44.000  
G20  22577726.987       65680.8812      -3247.745          36.000  
S38  35627814.633       49340.9382       -274.354          45.000  
S33  35357880.967       17610.6332       -289.431          42.000  
G 7  21356763.608      -32594.173        1574.385          42.000  
G 3  19657135.382       30867.9142        486.566          45.000  
G30  22968572.688      103188.7242      -3600.920          36.000  
G10  22603742.434      -29888.2672        353.086          37.000  
G 8  24363944.868      -22184.0213       1866.337          30.000  
G 6  20585020.591       77587.2682       -802.446          42.000  
G13  19401014.488      -37784.254        1556.380          46.000  
G19  20854369.693      -20781.3172       2335.865          42.000  
G23  18773702.927       -4115.1722       -714.954          46.000  
> 2012  9 14 12 45  8.0000000  0 14                     
G32  23839025.497      103615.5722      -3342.204          33.000  
G16  20765949.143       60306.3122      -3081.279          44.000  
G20  22578344.393       68927.2132      -3246.437          36.000  
S38  35627866.600       49614.3252       -274.532          45.000  
S33  35357936.615       17899.4742       -289.600          42.000  
G 7  21356464.005      -34169.403        1574.512          42.000  
G 3  19657042.390       30380.7122        486.594          45.000  
G30  22969257.889      106789.8602      -3601.805          36.000  
G10  22603674.763      -30242.7562        353.771          37.000  
G 8  24363589.704      -24051.9103       1868.688          30.000  
G 6  20585173.071       78388.8522       -801.976          43.000  
G13  19400718.654      -39341.266        1556.028          46.000  
G19  20853924.590      -23117.5652       2336.132          42.000  
G23  18773838.847       -3400.8572       -714.998          46.000  
> 2012  9 14 12 45  9.0000000  0 14                     
G32  23839661.348      106955.8902      -3341.250          33.000  
G16  20766534.999       63386.9162      -3081.193          44.000  
G20  22578961.659       72173.3102      -3246.673          36.000  
S38  35627918.462       49887.7412       -274.317          45.000  
S33  35357991.653       18188.1132       -288.578          42.000  
G 7  21356163.914      -35744.790        1574.990          42.000  
G 3  19656949.694       29894.0302        485.655          45.000  
G30  22969943.595      110390.8262      -3602.031          36.000  
G10  22603606.864      -30596.8252        352.246          37.000  
G 8  24363235.290      -25920.1103       1867.253          30.000  
G 6  20585325.307       79190.8942       -803.058          42.000  
G13  19400421.948      -40897.999        1556.138          46.000  
G19  20853480.168      -25453.5982       2336.129          42.000  
G23  18773975.168       -2686.0982       -715.951          46.000  
> 2012  9 14 12 45 10.0000000  0 14                     
G32  23840296.483      110295.9023      -3339.106          33.000  
G16  20767122.182       66467.5102      -3080.854          44.000  
G20  22579579.781       75419.2232      -3247.602          36.000  
S38  35627970.254       50160.9452       -274.120          45.000  
S33  35358046.325       18476.4162       -288.942          42.000  
G 7  21355863.962      -37320.363        1574.297          42.000  
G 3  19656857.208       29407.8142        485.516          45.000  
G30  22970628.551      113991.5862      -3599.741          36.000  
G10  22603539.401      -30950.5612        353.319          36.000  
G 8  24362879.707      -27788.5653       1867.632          30.000  
G 6  20585477.368       79993.3332       -803.471          42.000  
G13  19400125.661      -42454.492        1555.524          46.000  
G19  20853035.414      -27789.4832       2335.342          42.000  
G23  18774111.001       -1970.9232       -715.656          46.000  
> 2012  9 14 12 45 11.0000000  0 14                     
G32  23840931.322      113635.6152      -3338.876          33.000  
G16  20767708.177       69548.2132      -3082.116          44.000  
G20  22580197.449       78665.0332      -3248.248          36.000  
S38  35628022.221       50433.8902       -274.260          45.000  
S33  35358101.241       18764.6932       -289.916          42.000  
G 7  21355563.958      -38895.998        1574.340          42.000  
G 3  19656764.495       28922.1692        483.787          44.000  
G30  22971313.943      117592.2252      -3601.056          36.000  
G10  22603472.008      -31303.8322        351.137          37.000  
G 8  24362522.361      -29657.1673       1867.355          30.000  
G 6  20585630.511       80796.3062       -804.888          42.000  
G13  19399829.793      -44010.631        1554.384          46.000  
G19  20852590.574      -30125.0822       2334.375          42.000  
G23  18774246.484       -1255.2602       -717.366          46.000  
> 2012  9 14 12 45 12.0000000  0 14                     
G32  23841566.632      116975.3362      -3341.231          33.000  
G16  20768293.981       72629.3032      -3081.522          44.000  
G20  22580815.117       81910.9992      -3246.343          36.000  
S38  35628074.065       50706.9972       -273.478          45.000  
S33  35358155.581       19053.3462       -289.552          42.000  
G 7  21355263.710      -40471.433        1575.002          42.000  
G 3  19656671.678       28437.3532        483.943          44.000  
G30  22971998.829      121193.0832      -3600.423          36.000  
G10  22603404.616      -31656.3472        352.027          36.000  
G 8  24362164.388      -31525.4723       1866.726          30.000  
G 6  20585783.201       81600.0882       -804.958          42.000  
G13  19399533.540      -45566.163        1554.770          46.000  
G19  20852146.553      -32460.1562       2333.834          42.000  
G23  18774382.544        -538.7892       -717.082          46.000  
> 2012  9 14 12 45 13.0000000  0 14                     
G32  23842202.152      120315.0913      -3340.674          33.000  
G16  20768880.448       75710.218       -3082.218          44.000  
G20  22581432.488       85157.0813      -3247.579          36.000  
S38  35628126.503       50980.1682       -274.464          45.000  
S33  35358210.235       19342.0022       -289.293          42.000  
G 7  21354963.775      -42046.7253       1574.038          42.000  
G 3  19656579.523       27953.336         483.441          44.000  
G30  22972683.663      124793.9563      -3601.802          36.000  
G10  22603338.148      -32008.167         349.912          36.000  
G 8  24361809.817      -33393.8913       1866.368          31.000  
G 6  20585936.553       82404.111        -805.439          42.000  
G13  19399237.358      -47121.1393       1553.479          46.000  
G19  20851702.357      -34794.744        2333.024          42.000  
G23  18774519.039         177.877        -718.161          46.000  
> 2012  9 14 12 45 14.0000000  0 14                     
G32  23842837.357      123654.1843      -3338.708          33.000  
G16  20769466.653       78791.8363      -3082.807          44.000  
G20  22582050.208       88402.6153      -3247.725          36.000  
S38  35628178.208       51252.7273       -273.393          45.000  
S33  35358265.412       19630.0453       -289.427          42.000  
G 7  21354663.823      -43622.5023       1574.458          42.000  
G 3  19656487.386       27469.4643        481.817          44.000  
G30  22973368.933      128394.3503      -3602.131          36.000  
G10  22603271.069      -32359.9503        350.169          36.000  
G 8  24361453.693      -35262.8343       1868.421          31.000  
G 6  20586089.173       83209.2383       -805.954          42.000  
G13  19398941.402      -48676.1743       1553.385          45.000  
G19  20851257.656      -37129.4703       2333.447          42.000  
G23  18774655.378         895.6593       -719.263          46.000  
> 2012  9 14 12 45 15.0000000  0 14                     
G32  23843472.004      126992.9713      -3339.061          33.000  
G16  20770053.225       81873.0833      -3082.592          44.000  
G20  22582667.859       91648.0633      -3247.527          35.000  
S38  35628229.669       51525.0323       -273.103          45.000  
S33  35358319.543       19917.8473       -289.190          42.000  
G 7  21354364.290      -45198.3413       1574.337          42.000  
G 3  19656395.476       26986.1793        481.244          44.000  
G30  22974054.168      131994.6573      -3600.029          36.000  
G10  22603204.601      -32711.2863        349.680          37.000  
G 8  24361096.591      -37132.0233       1869.103          30.000  
G 6  20586242.334       84014.3943       -806.446          42.000  
G13  19398645.202      -50230.8663       1553.494          45.000  
G19  20850813.583      -39463.9203       2332.519          42.000  
G23  18774792.013        1613.4373       -719.520          45.000  
> 2012  9 14 12 45 16.0000000  0 14                     
G32  23844107.855      130331.7773      -3340.385          33.000  
G16  20770639.797       84954.6362      -3082.339          44.000  
G20  22583284.707       94893.5652      -3245.628          36.000  
S38  35628281.845       51797.4792       -273.434          45.000  
S33  35358374.616       20205.6392       -288.604          42.000  
G 7  21354064.408      -46774.0772       1574.949          42.000  
G 3  19656303.286       26503.6762        481.466          44.000  
G30  22974739.403      135595.0232      -3600.667          36.000  
G10  22603137.802      -33061.9222        349.749          37.000  
G 8  24360744.394      -39001.1473       1869.006          31.000  
G 6  20586395.791       84820.2852       -806.977          42.000  
G13  19398349.997      -51785.0102       1553.158          45.000  
G19  20850369.266      -41797.9032       2333.305          42.000  
G23  18774928.386        2331.9172       -719.658          45.000  
> 2012  9 14 12 45 17.0000000  0 14                     
G32  23844743.287      133670.0392      -3339.209          33.000  
G16  20771226.124       88036.0882      -3082.629          44.000  
G20  22583902.514       98138.7772      -3246.967          36.000  
S38  35628333.114       52069.7682       -272.940          45.000  
S33  35358429.671       20493.0822       -288.207          42.000  
G 7  21353764.177      -48350.0702       1574.708          42.000  
G 3  19656211.672       26021.5362        481.138          44.000  
G30  22975424.673      139195.0752      -3600.392          36.000  
G10  22603071.107      -33412.3272        349.237          37.000  
G 8  24360388.043      -40870.5242       1870.197          30.000  
G 6  20586549.178       85626.4852       -807.255          42.000  
G13  19398054.041      -53339.0112       1552.840          45.000  
G19  20849925.297      -44131.8232       2333.193          42.000  
G23  18775065.039        3050.7162       -719.618          45.000  
> 2012  9 14 12 45 18.0000000  0 14                     
G32  23845378.894      137008.0352      -3338.024          33.000  
G16  20771812.870       91117.5932      -3081.605          44.000  
G20  22584519.920      101383.7892      -3246.048          36.000  
S38  35628384.784       52341.8542       -272.095          45.000  
S33  35358483.784       20780.2572       -287.490          42.000  
G 7  21353463.528      -49926.2082       1576.222          42.000  
G 3  19656120.006       25539.8852        480.921          44.000  
G30  22976110.048      142794.9522      -3599.104          36.000  
G10  22603005.006      -33762.3032        349.029          36.000  
G 8  24360032.844      -42740.2922       1868.183          30.000  
G 6  20586703.037       86433.1712       -807.035          42.000  
G13  19397758.016      -54892.7452       1553.323          45.000  
G19  20849481.590      -46465.5532       2332.979          42.000  
G23  18775202.058        3769.9492       -719.447          45.000  
> 2012  9 14 12 45 19.0000000  0 14                     
G32  25045181.790      140332.0302      -3338.423          33.000  
G16  21971566.730       94186.5172      -3082.638          44.000  
G20  23784304.877      104615.3632      -3246.308          36.000  
S38  36827606.256       52612.2932       -273.543          45.000  
S33  36557708.066       21065.9442       -288.457          42.000  
G 7  22552334.355      -51496.4772       1575.437          42.000  
G 3  20855198.212       25060.3862        480.279          44.000  
G30  24175961.700      146379.9252      -3599.932          36.000  
G10  23802108.444      -34110.7822        348.163          36.000  
G 8  25558848.371      -44602.9353       1869.737          30.000  
G 6  21786025.825       87236.7862       -808.254          42.000  
G13  20596633.485      -56440.2842       1552.238          45.000  
G19  22048209.291      -48790.0242       2332.380          42.000  
G23  19974508.007        4486.4582       -720.740          45.000  
> 2012  9 14 12 45 20.0000000  0 14                     
G32  25045817.466      143669.4392      -3337.000          33.000  
G16  21972152.587       97268.0892      -3082.002          44.000  
G20  23784922.283      107860.0082      -3245.052          36.000  
S38  36827658.135       52884.1932       -271.956          45.000  
S33  36557762.964       21353.0472       -287.149          42.000  
G 7  22552034.403      -53072.8932       1576.529          42.000  
G 3  20855106.860       24579.7452        479.870          45.000  
G30  24176646.289      149979.4522      -3599.897          36.000  
G10  23802041.680      -34460.0112        347.938          36.000  
G 8  25558491.968      -46473.1023       1870.709          30.000  
G 6  21786179.718       88044.3622       -808.462          43.000  
G13  20596337.093      -57993.4552       1552.731          45.000  
G19  22047765.322      -51123.3322       2332.575          42.000  
G23  19974644.956        5206.5602       -720.927          45.000  
> 2012  9 14 12 45 21.0000000  0 14                     
G32  25046452.619      147006.5333      -3339.091          33.000  
G16  21972738.879      100349.7672      -3083.631          44.000  
G20  23785539.899      111104.5433      -3244.610          36.000  
S38  36827709.526       53156.1872       -274.199          45.000  
S33  36557816.920       21640.2742       -289.247          42.000  
G 7  22551734.765      -54649.3892       1575.317          42.000  
G 3  20855015.770       24099.6872        478.613          45.000  
G30  24177331.298      153578.8402      -3600.893          36.000  
G10  23801975.648      -34808.7202        347.917          36.000  
G 8  25558135.233      -48343.3383       1868.730          31.000  
G 6  21786333.402       88852.4762       -810.157          43.000  
G13  20596041.276      -59546.2822       1551.078          45.000  
G19  22047321.773      -53456.3742       2331.434          42.000  
G23  19974781.923        5927.1902       -722.719          45.000  
> 2012  9 14 12 45 22.0000000  0 14                     
G32  25047087.615      150343.6473      -3332.577          33.000  
G16  21973325.573      103431.8703      -3079.022          44.000  
G20  23786157.340      114349.3032      -3241.262          36.000  
S38  36827761.214       53428.3293       -268.006          45.000  
S33  36557871.120       21927.5773       -283.299          42.000  
G 7  22551434.936      -56225.6523       1579.765          42.000  
G 3  20854924.418       23620.5013        482.335          44.000  
G30  24178016.533      157178.4423      -3596.293          36.000  
G10  23801909.459      -35156.7143        350.782          36.000  
G 8  25557779.161      -50213.5173       1872.274          30.000  
G 6  21786488.011       89661.4093       -805.588          43.000  
G13  20595745.652      -61098.4613       1555.229          45.000  
G19  22046877.647      -55788.8333       2336.660          42.000  
G23  19974919.029        6648.6213       -718.429          45.000  
> 2012  9 14 12 45 23.0000000  0 14                     
G32  25047722.646      153680.7813      -3338.522          33.000  
G16  21973911.865      106514.2383      -3082.355          44.000  
G20  23786774.380      117594.1003      -3240.000          36.000  
S38  36827812.605       53700.2593       -271.317          45.000  
S33  36557925.966       22214.8303       -287.239          42.000  
G 7  22551134.914      -57801.8123       1577.297          42.000  
G 3  20854833.171       23142.0543        479.565          44.000  
G30  24178701.122      160778.1033      -3599.652          36.000  
G10  23801843.515      -35503.9973        348.650          36.000  
G 8  25557423.159      -52083.5733       1873.767          31.000  
G 6  21786641.800       90471.0453       -809.696          43.000  
G13  20595450.150      -62650.1393       1552.371          45.000  
G19  22046433.626      -58120.8933       2331.795          42.000  
G23  19975056.362        7370.7133       -721.890          46.000  
> 2012  9 14 12 45 24.0000000  0 14                     
G32  25048357.642      157017.0523      -3337.937          33.000  
G16  21974498.280      109596.2053      -3083.886          44.000  
G20  23787391.629      120838.2453      -3244.419          36.000  
S38  36827864.414       53971.5033       -273.310          45.000  
S33  36557980.847       22501.4873       -288.055          42.000  
G 7  22550834.892      -59378.5613       1575.397          42.000  
G 3  20854741.889       22663.6733        476.363          44.000  
G30  24179385.834      164377.1223      -3601.158          36.000  
G10  23801776.751      -35851.3813        345.135          36.000  
G 8  25557067.733      -53954.2903       1868.614          31.000  
G 6  21786795.379       91280.6913       -812.032          43.000  
G13  20595154.736      -64201.9553       1550.378          45.000  
G19  22045989.292      -60453.1603       2330.906          42.000  
G23  19975193.660        8092.8353       -724.007          45.000  
> 2012  9 14 12 45 25.0000000  0 14                     
G32  25048992.359      160353.9603      -3337.609          33.000  
G16  21975084.206      112679.1193      -3083.976          44.000  
G20  23788008.337      124083.0853      -3246.715          36.000  
S38  36827916.957       54243.5033       -273.423          45.000  
S33  36558035.955       22788.8873       -288.907          42.000  
G 7  22550535.551      -60954.5843       1574.346          42.000  
G 3  20854650.973       22186.6903        475.162          44.000  
G30  24180071.017      167976.8832      -3601.728          36.000  
G10  23801710.928      -36197.4583        345.642          36.000  
G 8  25556712.621      -55824.4643       1869.361          31.000  
G 6  21786949.866       92091.6923       -812.247          42.000  
G13  20594859.827      -65752.6173       1549.389          45.000  
G19  22045545.847      -62784.3373       2329.864          42.000  
G23  19975331.744        8816.2723       -725.092          45.000  
> 2012  9 14 12 45 26.0000000  0 14                     
G32  25049627.547      163690.8922      -3337.993          33.000  
G16  21975670.393      115762.4012      -3084.017          44.000  
G20  23788626.074      127328.1312      -3246.461          36.000  
S38  36827967.754       54515.8692       -273.574          45.000  
S33  36558090.016       23076.6212       -288.167          42.000  
G 7  22550235.460      -62530.3592       1574.544          42.000  
G 3  20854560.389       21710.5702        475.422          44.000  
G30  24180756.391      171576.8062      -3601.124          36.000  
G10  23801645.141      -36542.7722        344.387          36.000  
G 8  25556356.410      -57694.4433       1868.945          31.000  
G 6  21787104.073       92903.5242       -812.792          42.000  
G13  20594565.197      -67302.6512       1548.729          45.000  
G19  22045102.472      -65114.9552       2329.632          42.000  
G23  19975469.793        9540.5052       -725.228          45.000  
> 2012  9 14 12 45 27.0000000  0 14                     
G32  25050262.543      167027.5403      -3338.173          33.000  
G16  21976257.017      118845.7743      -3085.515          44.000  
G20  23789243.550      130573.0533      -3245.893          35.000  
S38  36828018.988       54788.2783       -274.175          45.000  
S33  36558144.670       23364.3083       -289.128          42.000  
G 7  22549935.491      -64106.2353       1573.977          42.000  
G 3  20854469.718       21234.9843        473.556          44.000  
G30  24181440.824      175176.5653      -3601.724          36.000  
G10  23801578.848      -36887.6853        342.264          36.000  
G 8  25556000.740      -59564.5853       1868.459          31.000  
G 6  21787258.508       93715.8473       -814.351          42.000  
G13  20594270.498      -68852.3593       1547.726          45.000  
G19  22044658.904      -67445.3333       2328.155          42.000  
G23  19975607.213       10265.2203       -726.599          45.000  
> 2012  9 14 12 45 28.0000000  0 14                     
G32  25050897.225      170363.7453      -3336.271          33.000  
G16  21976843.415      121929.0873      -3085.344          44.000  
G20  23789861.166      133817.6603      -3244.977          36.000  
S38  36828070.676       55060.2973       -272.698          45.000  
S33  36558199.656       23651.6783       -288.352          42.000  
G 7  22549635.207      -65682.3743       1575.138          42.000  
G 3  20854379.046       20759.8043        473.460          44.000  
G30  24182125.570      178776.1063      -3600.494          36.000  
G10  23801512.484      -37232.2793        341.948          36.000  
G 8  25555645.069      -61435.0683       1868.988          31.000  
G 6  21787413.134       94528.5113       -813.752          42.000  
G13  20593975.293      -70401.8783       1547.908          45.000  
G19  22044215.128      -69775.5933       2329.333          42.000  
G23  19975745.210       10990.2603       -726.485          46.000  
> 2012  9 14 12 45 29.0000000  0 15                     
G32  25051531.523      173700.0972      -3336.723          33.000  
G16  21977429.847      125012.8822      -3085.481          44.000  
S35  37881239.235       11556.7312       -277.533          43.000  
G20  23790477.874      137062.5623      -3246.063          36.000  
S38  36828122.608       55332.4872       -273.296          45.000  
S33  36558254.223       23939.2582       -289.126          42.000  
G 7  22549335.308      -67258.2032       1575.128          42.000  
G 3  20854288.811       20285.5532        472.718          44.000  
G30  24182810.840      182375.8512      -3600.504          36.000  
G10  23801446.994      -37576.0343        342.479          36.000  
G 8  25555288.492      -63305.3793       1869.095          31.000  
G 6  21787567.656       95342.0692       -814.833          43.000  
G13  20593680.594      -71950.6992       1547.009          45.000  
G19  22043771.351      -72105.2252       2328.557          42.000  
G23  19975883.485       11716.1782       -727.272          46.000  
> 2012  9 14 12 45 30.0000000  0 15                     
G32  25052166.047      177036.2242      -3336.297          33.000  
G16  21978016.593      128096.8012      -3085.080          44.000  
S35  37881291.271       11833.0072       -277.372          43.000  
G20  23791095.402      140307.2893      -3246.200          35.000  
S38  36828174.400       55604.6632       -272.627          45.000  
S33  36558308.074       24226.6922       -287.617          42.000  
G 7  22549035.478      -68834.1022       1575.327          42.000  
G 3  20854198.471       19811.9082        472.580          44.000  
G30  24183495.587      185975.4752      -3599.751          36.000  
G10  23801381.835      -37919.2933        340.295          35.000  
G 8  25554933.066      -65175.7973       1869.371          31.000  
G 6  21787722.579       96156.1622       -815.290          42.000  
G13  20593386.051      -73499.1412       1547.699          45.000  
G19  22043328.273      -74434.5902       2328.475          42.000  
G23  19976021.638       12442.6192       -727.435          46.000  
> 2012  9 14 12 45 31.0000000  0 15                     
G32  25052800.363      180371.5313      -3335.156          33.000  
G16  21978603.496      131180.2963      -3084.502          43.000  
S35  37881344.250       12108.7023       -276.096          43.000  
G20  23791712.878      143551.4333      -3244.394          35.000  
S38  36828226.262       55876.1623       -272.179          45.000  
S33  36558363.164       24513.4923       -288.030          42.000  
G 7  22548734.881      -70410.5913       1575.798          42.000  
G 3  20854108.760       19338.2963        472.109          44.000  
G30  24184179.827      189574.5243      -3600.226          36.000  
G10  23801316.641      -38262.6383        342.472          35.000  
G 8  25554576.627      -67046.8993       1871.658          31.000  
G 6  21787877.362       96970.2713       -815.363          42.000  
G13  20593091.021      -75047.7823       1547.746          45.000  
G19  22042885.072      -76764.1903       2328.866          42.000  
G23  19976159.739       13169.0303       -727.707          46.000  
> 2012  9 14 12 45 32.0000000  0 15                     
G32  25053435.289      183706.5583      -3335.658          33.000  
G16  21979190.434      134263.8993      -3084.526          43.000  
S35  37881396.217       12384.3043       -276.406          43.000  
G20  23792329.709      146795.4733      -3244.893          35.000  
S38  36828277.758       56147.5033       -272.750          45.000  
S33  36558417.591       24800.2123       -287.518          42.000  
G 7  22548434.737      -71987.1673       1574.967          42.000  
G 3  20854018.507       18865.2663        471.430          44.000  
G30  24184864.679      193173.4213      -3600.080          36.000  
G10  23801250.801      -38605.5153        342.027          35.000  
G 8  25554220.172      -68918.1363       1870.998          31.000  
G 6  21788032.093       97784.9053       -816.021          42.000  
G13  20592796.339      -76596.0803       1547.106          45.000  
G19  22042441.470      -79093.5333       2328.205          42.000  
G23  19976297.858       13895.9763       -728.280          46.000  
> 2012  9 14 12 45 33.0000000  0 15                     
G32  25054069.919      187042.0683      -3335.398          33.000  
G16  21979776.709      137348.2832      -3085.219          43.000  
S35  37881447.992       12660.4693       -277.358          43.000  
G20  23792947.289      150040.0323      -3245.859          35.000  
S38  36828329.532       56419.3353       -272.749          45.000  
S33  36558472.472       25087.3863       -287.957          42.000  
G 7  22548134.733      -73563.1373       1575.022          42.000  
G 3  20853928.674       18393.4753        470.425          44.000  
G30  24185549.355      196772.8763      -3601.137          36.000  
G10  23801185.834      -38947.2433        340.483          35.000  
G 8  25553864.222      -70788.8572       1871.222          31.000  
G 6  21788186.842       98600.7283       -817.546          42.000  
G13  20592501.831      -78143.3463       1546.327          45.000  
G19  22041998.217      -81421.9313       2327.042          43.000  
G23  19976436.587       14624.0893       -729.246          46.000  
> 2012  9 14 12 45 34.0000000  0 15                     
G32  25054704.374      190377.4962      -3337.468          33.000  
G16  21980364.188      140432.9592      -3085.626          43.000  
S35  37881500.971       12936.6042       -277.396          43.000  
G20  23793564.800      153284.6533      -3245.844          35.000  
S38  36828381.098       56691.0922       -272.171          45.000  
S33  36558527.144       25374.6252       -288.698          42.000  
G 7  22547834.991      -75138.9992       1574.631          42.000  
G 3  20853839.206       17922.4392        469.613          44.000  
G30  24186234.154      200372.4062      -3599.903          36.000  
G10  23801120.832      -39288.2992        341.095          35.000  
G 8  25553508.203      -72659.5723       1872.503          31.000  
G 6  21788341.538       99417.2692       -817.375          42.000  
G13  20592207.429      -79690.0852       1545.589          45.000  
G19  22041555.645      -83749.8642       2327.110          42.000  
G23  19976575.247       15352.9032       -729.712          46.000  
> 2012  9 14 12 45 35.0000000  0 15                     
G32  25055338.305      193712.4143      -3333.776          33.000  
G16  21980950.934      143517.5033      -3085.540          43.000  
S35  37881553.757       13212.2783       -276.726          43.000  
G20  23794182.695      156528.9213      -3246.089          35.000  
S38  36828432.366       56962.3763       -272.457          45.000  
S33  36558581.432       25661.7413       -289.030          42.000  
G 7  22547535.283      -76715.1663       1574.241          42.000  
G 3  20853749.757       17451.7503        469.592          44.000  
G30  24186918.726      203971.5903      -3600.779          36.000  
G10  23801056.266      -39629.1793        340.158          35.000  
G 8  25553151.451      -74530.7533       1870.755          31.000  
G 6  21788496.897      100234.0783       -818.399          42.000  
G13  20591913.061      -81236.7323       1545.327          45.000  
G19  22041112.846      -86077.7783       2326.424          42.000  
G23  19976713.644       16081.9673       -730.480          45.000  
> 2012  9 14 12 45 36.0000000  0 15                     
G32  25055972.969      197047.2663      -3335.982          33.000  
G16  21981538.082      146602.2853      -3086.113          43.000  
S35  37881606.422       13488.0043       -277.299          43.000  
G20  23794799.962      159773.2333      -3245.905          35.000  
S38  36828484.159       57233.7993       -272.582          45.000  
S33  36558636.016       25948.8343       -288.225          42.000  
G 7  22547235.558      -78291.2863       1573.866          42.000  
G 3  20853659.975       16981.7573        468.416          44.000  
G30  24187603.473      207570.7873      -3600.309          35.000  
G10  23800991.020      -39969.4433        337.514          35.000  
G 8  25552794.978      -76401.8183       1867.519          31.000  
G 6  21788652.361      101051.5633       -819.758          42.000  
G13  20591618.850      -82782.8883       1544.971          45.000  
G19  22040669.837      -88405.2763       2326.124          42.000  
G23  19976851.955       16811.7033       -731.136          45.000  
> 2012  9 14 12 45 37.0000000  0 15                     
G32  25056607.965      200381.8583      -3336.877          33.000  
G16  21982124.775      149687.2612      -3086.257          43.000  
S35  37881658.965       13763.8132       -277.527          43.000  
G20  23795417.420      163017.4872      -3245.868          36.000  
S38  36828535.916       57505.3062       -272.783          45.000  
S33  36558690.408       26235.7532       -288.120          42.000  
G 7  22546935.519      -79867.3742       1574.268          42.000  
G 3  20853570.857       16512.4372        467.670          44.000  
G30  24188287.783      211170.0033      -3601.177          35.000  
G10  23800926.367      -40309.1022        338.743          36.000  
G 8  25552438.609      -78272.9873       1871.396          31.000  
G 6  21788808.140      101869.6572       -819.066          42.000  
G13  20591324.465      -84328.6112       1544.194          45.000  
G19  22040226.514      -90732.4222       2325.889          42.000  
G23  19976990.876       17542.0222       -731.864          45.000  
> 2012  9 14 12 45 41.0000000  0 16                     
G32  25059145.262      213720.5123      -3327.495          32.000  
G16  21984472.144      162030.7632      -3082.175          43.000  
S35  37881868.542       14869.1582       -273.229          43.000  
G20  23797887.481      175995.9962      -3241.852          36.000  
S38  36828742.422       58593.4402       -269.231          45.000  
S33  36558909.112       27384.9622       -284.307          42.000  
G 7  22545736.427      -86169.9632       1578.275          42.000  
G 3  20853214.611       14643.4242        468.909          44.000  
G30  24191027.118      225568.1442      -3596.922          35.000  
G10  23800669.307      -41660.7272        341.206          36.000  
G 8  25551014.654      -85756.8243       1872.132          32.000  
G 6  21789432.247      105149.8002       -817.767          42.000  
G13  20590148.512      -90505.4972       1546.014          45.000  
G11  25896596.969       10875.1192       1653.909          35.000  
G19  22038456.765     -100035.7402       2327.731          42.000  
G23  19977548.323       20470.9212       -729.638          45.000  
> 2012  9 14 12 45 44.0000000  0 16                     
G32  25061049.622      223723.5603      -3333.952          32.000  
G16  21986233.551      171291.2473      -3087.916          43.000  
S35  37882026.013       15699.1963       -277.446          43.000  
G20  23799739.438      185730.3563      -3245.943          36.000  
S38  36828897.746       59409.6363       -272.319          45.000  
S33  36559073.388       28247.4133       -287.918          42.000  
G 7  22544836.799      -90895.9363       1573.876          42.000  
G 3  20852948.827       13249.3963        463.156          44.000  
G30  24193081.044      236367.2563      -3599.062          35.000  
G10  23800478.559      -42667.8063        333.554          36.000  
G 8  25549947.277      -91369.5313       1871.321          32.000  
G 6  21789901.169      107617.1763       -824.083          42.000  
G13  20589267.905      -95132.7903       1540.976          45.000  
G11  25895655.268        5917.4173       1651.466          35.000  
G19  22037128.909     -107008.6293       2323.245          42.000  
G23  19977967.285       22674.6293       -736.024          45.000  
> 2012  9 14 12 45 45.0000000  0 16                     
G32  25061684.042      227056.7843      -3334.996          33.000  
G16  21986820.943      174377.6743      -3087.760          43.000  
S35  37882078.154       15975.0873       -277.328          43.000  
G20  23800357.053      188974.2623      -3246.098          36.000  
S38  36828948.649       59680.8293       -272.498          45.000  
S33  36559128.496       28534.0463       -288.030          42.000  
G 7  22544536.463      -92472.0253       1575.129          42.000  
G 3  20852860.493       12785.2543        462.294          44.000  
G30  24193765.598      239966.1493      -3599.747          35.000  
G10  23800414.988      -43003.1973        334.999          36.000  
G 8  25549590.873      -93241.3703       1870.784          32.000  
G 6  21790057.488      108440.0773       -824.516          42.000  
G13  20588974.200      -96675.1313       1540.749          45.000  
G11  25895340.344        4263.3873       1653.833          35.000  
G19  22036686.127     -109333.0183       2321.760          42.000  
G23  19978107.498       23409.5943       -736.546          45.000  
> 2012  9 14 12 45 46.0000000  0 16                     
G32  25062318.671      230390.3323      -3333.311          33.000  
G16  21987408.405      177464.7663      -3088.462          43.000  
S35  37882130.662       16251.5253       -277.705          43.000  
G20  23800973.831      192218.6973      -3244.710          36.000  
S38  36829000.720       59952.4383       -272.396          45.000  
S33  36559182.836       28821.1763       -287.851          42.000  
G 7  22544236.197      -94047.6183       1574.708          42.000  
G 3  20852772.667       12322.2573        461.263          44.000  
G30  24194450.467      243565.4743      -3599.162          35.000  
G10  23800351.469      -43337.5583        332.746          36.000  
G 8  25549235.133      -95112.8233       1869.118          33.000  
G 6  21790214.104      109264.0853       -825.491          42.000  
G13  20588680.862      -98216.5533       1539.978          45.000  
G11  25895025.751        2609.4363       1653.741          35.000  
G19  22036243.223     -111656.5293       2322.245          42.000  
G23  19978247.326       24145.6503       -737.244          45.000  
> 2012  9 14 12 45 47.0000000  0 16                     
G32  25062953.179      233723.4603      -3335.188          33.000  
G16  21987995.639      180551.8562      -3087.781          43.000  
S35  37882183.396       16527.6662       -276.925          43.000  
G20  23801591.150      195462.7982      -3245.521          36.000  
S38  36829052.094       60223.8273       -271.605          45.000  
S33  36559237.560       29108.1542       -287.898          42.000  
G 7  22543936.385      -95623.4202       1575.305          42.000  
G 3  20852684.508       11859.7033        461.573          44.000  
G30  24195135.301      247164.5393      -3599.616          36.000  
G10  23800287.915      -43671.5622        332.956          36.000  
G 8  25548879.097      -96984.5173       1872.129          33.000  
G 6  21790370.754      110088.4723       -825.476          42.000  
G13  20588387.611      -99757.7742       1540.058          45.000  
G11  25894710.339         954.9453       1655.296          34.000  
G19  22035801.383     -113979.9282       2322.676          42.000  
G23  19978387.574       24882.0603       -737.556          45.000  
> 2012  9 14 12 45 50.0000000  0 16                     
G32  25064855.148      243718.7943      -3331.364          33.000  
G16  21989757.361      189811.0362      -3087.456          43.000  
S35  37882340.448       17352.3663       -275.852          43.000  
G20  23803442.601      205191.8563      -3244.582          37.000  
S38  36829206.092       61034.9342       -271.294          45.000  
S33  36559400.370       29966.0582       -287.357          42.000  
G 7  22543035.954     -100353.9193       1576.144          42.000  
G 3  20852420.451       10472.7852        460.042          44.000  
G30  24197190.727      257958.4323      -3598.728          36.000  
G10  23800096.120      -44673.4773        332.417          36.000  
G 8  25547809.782     -102603.2462       1872.961          33.000  
G 6  21790840.898      112562.1343       -826.426          42.000  
G13  20587507.527     -104382.0122       1540.122          45.000  
G11  25893764.327       -4013.8683       1656.520          33.000  
G19  22034474.504     -120951.1273       2322.316          42.000  
G23  19978807.758       27091.6973       -738.422          45.000  
> 2012  9 14 12 45 55.0000000  0 15                     
G32  25068023.148      260370.9222      -3329.819          33.000  
G16  21992694.634      205243.5032      -3087.302          43.000  
S35  37882601.032       18721.9642       -274.331          43.000  
G20  23806528.602      221402.9602      -3242.935          37.000  
S38  36829462.645       62383.1492       -269.725          45.000  
S33  36559670.779       31391.7002       -285.424          42.000  
G 7  22541534.729     -108241.2232       1576.747          42.000  
G 3  20851982.346        8171.0922        457.707          44.000  
G30  24200613.587      275944.3582      -3598.881          36.000  
G10  23799778.317      -46335.6172        330.338          36.000  
G 8  25546025.480     -111972.5822       1873.841          33.000  
G 6  21791626.140      116693.7622       -828.873          42.000  
G13  20586041.464     -112083.7892       1538.717          45.000  
G19  22032264.311     -132565.9732       2321.184          42.000  
G23  19979510.303       30782.9242       -740.673          46.000  
> 2012  9 14 12 45 56.0000000  0 16                     
G32  25068655.997      263700.0653      -3324.788          33.000  
G16  21993281.904      208329.7633      -3083.099          43.000  
S35  37882653.156       18994.9963       -270.245          43.000  
G20  23807145.136      224644.3103      -3237.639          37.000  
S38  36829514.175       62651.8103       -265.368          45.000  
S33  36559724.875       31676.0903       -281.289          42.000  
G 7  22541234.062     -109819.4253       1581.552          42.000  
G 3  20851895.165        7711.9473        461.972          44.000  
G30  24201297.671      279540.6703      -3593.875          36.000  
G10  23799715.653      -46667.1693        334.269          36.000  
G 8  25545667.960     -113847.4563       1876.590          32.000  
G 6  21791783.838      117521.1553       -824.584          42.000  
G13  20585748.998     -113623.6413       1542.650          45.000  
G11  25891866.913      -13961.7963       1653.943          21.000  
G19  22031822.734     -134888.6303       2325.287          42.000  
G23  19979650.795       31522.1793       -736.378          46.000  
> 2012  9 14 12 45 57.0000000  0 16                     
G32  25069289.004      267028.7983      -3321.877          33.000  
G16  21993869.540      211416.0873      -3080.029          43.000  
S35  37882704.582       19267.8202       -267.542          43.000  
G20  23807762.175      227885.4753      -3232.694          37.000  
S38  36829565.112       62920.3352       -263.536          45.000  
S33  36559778.988       31960.4073       -278.187          42.000  
G 7  22540933.656     -111397.7973       1583.176          42.000  
G 3  20851807.565        7253.3032        463.782          45.000  
G30  24201981.615      283136.7902      -3590.656          36.000  
G10  23799652.937      -46998.3643        337.641          36.000  
G 8  25545310.963     -115722.5182       1881.005          33.000  
G 6  21791941.710      118348.9903       -821.703          42.000  
G13  20585456.236     -115163.2012       1544.902          45.000  
G11  25891551.553      -15622.4083       1656.913          20.000  
G19  22031380.789     -137211.0933       2329.121          42.000  
G23  19979791.426       32261.8473       -733.857          46.000  
> 2012  9 14 12 45 58.0000000  0 16                     
G32  25069922.394      270356.6263      -3330.125          33.000  
G16  21994456.513      214501.7623      -3086.875          43.000  
S35  37882756.409       19539.7843       -272.641          43.000  
G20  23808378.866      231125.7423      -3241.558          37.000  
S38  36829616.259       63188.1153       -268.446          45.000  
S33  36559832.961       32243.9003       -284.456          42.000  
G 7  22540633.233     -112976.9443       1578.117          42.000  
G 3  20851720.244        6794.5023        457.654          45.000  
G30  24202666.117      286732.1113      -3595.801          36.000  
G10  23799590.587      -47329.7883        330.542          36.000  
G 8  25544953.757     -117598.4733       1875.654          33.000  
G 6  21792099.128      119176.5893       -828.954          42.000  
G13  20585162.793     -116703.1573       1538.705          45.000  
G11  25891236.297      -17285.1863       1660.869          22.000  
G19  22030938.863     -139534.0303       2322.014          42.000  
G23  19979931.569       33001.3073       -740.457          46.000  
> 2012  9 14 12 45 59.0000000  0 16                     
G32  25070555.680      273684.3893      -3328.821          34.000  
G16  21995043.765      217587.7173      -3087.192          43.000  
S35  37882808.062       19811.9073       -273.055          43.000  
G20  23808994.806      234366.1053      -3241.228          37.000  
S38  36829667.580       63456.0473       -268.627          45.000  
S33  36559886.778       32527.3113       -284.068          42.000  
G 7  22540332.810     -114555.9853       1578.444          42.000  
G 3  20851633.289        6336.4543        456.616          45.000  
G30  24203349.974      290327.4693      -3596.680          36.000  
G10  23799527.906      -47660.6013        329.118          36.000  
G 8  25544596.516     -119474.4543       1875.503          34.000  
G 6  21792256.931      120004.9343       -829.902          42.000  
G13  20584869.839     -118242.5813       1537.930          45.000  
G11  25890919.366      -18944.9523       1666.366          23.000  
G19  22030496.203     -141856.5063       2321.147          42.000  
G23  19980072.881       33741.4393       -741.427          45.000  
> 2012  9 14 12 46  7.0000000  0 16                     
G32  25075619.611      300295.5483      -3328.027          33.000  
G16  21999742.376      242277.5352      -3087.631          43.000  
S35  37883220.777       21984.7382       -272.258          43.000  
G20  23813925.627      260283.1072      -3239.734          36.000  
S38  36830072.896       65593.5572       -267.927          45.000  
S33  36560316.262       34788.4982       -282.667          42.000  
G 7  22537926.740     -127192.7242       1578.162          42.000  
G 3  20850939.242        2691.0502        452.016          45.000  
G30  24208822.240      319084.4812      -3593.530          36.000  
G10  23799027.207      -50291.8352        325.919          37.000  
G 8  25541739.602     -134489.3882       1875.807          34.000  
G 6  21793521.653      126648.6722       -833.789          42.000  
G13  20582527.549     -130547.0552       1535.623          45.000  
G11  25888388.578      -32260.6043       1665.335          30.000  
G19  22026962.202     -160428.1632       2319.494          42.000  
G23  19981201.683       39679.2062       -745.389          45.000  
> 2012  9 14 12 46  8.0000000  0 16                     
G32  25076252.443      303620.8713      -3327.370          33.000  
G16  22000329.575      245364.3372      -3088.025          43.000  
S35  37883272.063       22256.0302       -272.242          43.000  
G20  23814542.126      263522.2593      -3241.314          36.000  
S38  36830123.153       65860.4122       -267.663          45.000  
S33  36560370.131       35070.8172       -283.524          42.000  
G 7  22537626.107     -128772.5332       1578.941          42.000  
G 3  20850852.916        2238.0702        451.944          45.000  
G30  24209506.061      322678.6903      -3596.145          37.000  
G10  23798964.997      -50618.5622        324.162          37.000  
G 8  25541382.431     -136366.8592       1876.528          34.000  
G 6  21793680.432      127481.6112       -834.780          42.000  
G13  20582235.240     -132083.4312       1535.088          45.000  
G11  25888072.328      -33926.8843       1664.962          31.000  
G19  22026520.782     -162748.2622       2319.299          43.000  
G23  19981343.449       40423.8402       -745.814          45.000  
> 2012  9 14 12 46  9.0000000  0 16                     
G32  25076884.909      306945.4843      -3325.662          33.000  
G16  22000916.793      248450.7463      -3087.140          43.000  
S35  37883323.157       22526.6943       -271.639          43.000  
G20  23815158.363      266760.8583      -3239.477          36.000  
S38  36830173.933       66126.4133       -266.937          45.000  
S33  36560423.372       35352.4563       -282.134          42.000  
G 7  22537325.126     -130352.8883       1579.726          41.000  
G 3  20850766.886        1785.1683        452.185          45.000  
G30  24210190.686      326272.2953      -3593.877          37.000  
G10  23798902.525      -50945.2653        326.596          37.000  
G 8  25541024.841     -138244.9733       1878.123          34.000  
G 6  21793838.496      128314.5973       -834.116          42.000  
G13  20581942.478     -133619.9513       1535.542          45.000  
G11  25887756.811      -35594.0673       1666.539          31.000  
G19  22026079.466     -165068.5943       2319.492          43.000  
G23  19981485.406       41168.4723       -745.734          45.000  
> 2012  9 14 12 46 10.0000000  0 16                     
G32  25077517.253      310269.1993      -3325.374          33.000  
G16  22001504.359      251536.6093      -3087.225          43.000  
S35  37883374.792       22796.6193       -271.498          43.000  
G20  23815774.146      269998.6323      -3239.746          36.000  
S38  36830224.434       66391.5893       -266.756          45.000  
S33  36560476.473       35633.2923       -282.000          42.000  
G 7  22537024.232     -131934.0173       1580.149          41.000  
G 3  20850680.892        1332.1793        451.872          45.000  
G30  24210874.577      329865.1403      -3594.708          37.000  
G10  23798839.861      -51272.1933        326.200          36.000  
G 8  25540667.251     -140123.9213       1878.863          34.000  
G 6  21793997.032      129147.4093       -834.297          42.000  
G13  20581650.117     -135156.7863       1535.656          45.000  
G11  25887439.321      -37262.3563       1667.253          31.000  
G19  22025637.748     -167389.2953       2319.410          43.000  
G23  19981626.910       41912.9283       -745.848          45.000  
> 2012  9 14 12 46 11.0000000  0 16                     
G32  25078149.300      313592.9412      -3322.548          33.000  
G16  22002091.349      254622.8802      -3087.480          43.000  
S35  37883426.044       23066.6852       -271.297          43.000  
G20  23816390.261      273236.6922      -3239.699          36.000  
S38  36830274.778       66657.0132       -266.240          45.000  
S33  36560530.062       35914.4982       -281.647          42.000  
G 7  22536723.093     -133514.8822       1579.819          41.000  
G 3  20850595.036         880.0772        450.978          45.000  
G30  24211559.184      333458.1982      -3593.794          37.000  
G10  23798777.896      -51598.3142        325.074          36.000  
G 8  25540309.644     -142002.6892       1877.299          34.000  
G 6  21794155.323      129981.1022       -834.722          42.000  
G13  20581358.018     -136692.9492       1535.384          45.000  
G11  25887118.395      -38930.7393       1666.759          32.000  
G19  22025195.909     -169709.4302       2319.043          42.000  
G23  19981768.763       42658.2172       -746.507          45.000  
> 2012  9 14 12 46 19.0000000  0 16                     
G32  25083204.488      340171.1893      -3320.302          32.000  
G16  22006790.012      279314.2473      -3088.031          43.000  
S35  37883835.583       25219.7133       -270.107          43.000  
G20  23821318.429      299133.8523      -3237.632          35.000  
S38  36830677.703       68774.8103       -265.792          45.000  
S33  36560957.174       38158.3353       -280.762          42.000  
G 7  22534315.452     -146167.0753       1580.330          41.000  
G 3  20849908.807       -2718.6313        446.774          45.000  
G30  24217026.774      362195.7833      -3593.437          36.000  
G10  23798284.072      -54193.2473        320.774          36.000  
G 8  25537447.703     -157041.1413       1879.893          35.000  
G 6  21795427.548      136666.9183       -838.619          42.000  
G13  20579020.229     -148972.2743       1532.325          45.000  
G11  25884577.172      -52296.6573       1669.470          34.000  
G19  22021664.072     -188263.0493       2317.308          42.000  
G23  19982905.208       48636.2753       -750.178          46.000  
> 2012  9 14 12 46 20.0000000  0 16                     
G32  25083836.430      343492.2243      -3323.326          32.000  
G16  22007377.230      282401.0323      -3087.879          43.000  
S35  37883886.555       25488.1412       -268.988          43.000  
G20  23821934.457      302370.3583      -3236.733          35.000  
S38  36830727.960       69039.0532       -264.795          45.000  
S33  36561010.327       38438.1542       -281.083          42.000  
G 7  22534013.947     -147749.0083       1581.201          41.000  
G 3  20849823.493       -3165.9782        446.370          45.000  
G30  24217710.438      365787.3462      -3592.067          37.000  
G10  23798222.647      -54515.5962        321.372          36.000  
G 8  25537089.956     -158921.7333       1880.576          35.000  
G 6  21795586.834      137504.9153       -838.903          42.000  
G13  20578728.357     -150505.7002       1532.095          45.000  
G11  25884258.478      -53969.4992       1669.652          34.000  
G19  22021223.210     -190581.0982       2316.738          42.000  
G23  19983048.457       49385.7262       -750.694          45.000  
> 2012  9 14 12 46 21.0000000  0 16                     
G32  25084468.250      346812.8723      -3320.808          32.000  
G16  22007965.232      285487.7822      -3087.990          43.000  
S35  37883937.230       25756.4062       -268.433          43.000  
G20  23822549.856      305606.6112      -3238.461          35.000  
S38  36830777.693       69303.0133       -264.773          45.000  
S33  36561063.620       38717.7742       -280.435          42.000  
G 7  22533712.652     -149331.1683       1580.974          41.000  
G 3  20849738.405       -3612.8922        445.861          45.000  
G30  24218393.492      369378.6622      -3590.782          37.000  
G10  23798160.612      -54837.6692        320.052          36.000  
G 8  25536731.825     -160802.6073       1880.429          34.000  
G 6  21795746.329      138343.2992       -840.045          42.000  
G13  20578435.769     -152038.9102       1532.267          45.000  
G11  25883939.680      -55642.9232       1673.011          33.000  
G19  22020781.614     -192899.0043       2317.377          42.000  
G23  19983191.148       50135.5472       -751.087          45.000  
> 2012  9 14 12 46 22.0000000  0 16                     
G32  25085100.070      350132.6073      -3316.384          31.000  
G16  22008552.310      288573.9843      -3087.196          43.000  
S35  37883988.621       26024.0383       -268.508          43.000  
G20  23823165.081      308842.0913      -3235.830          35.000  
S38  36830827.915       69566.1343       -264.229          45.000  
S33  36561116.739       38996.5803       -279.405          42.000  
G 7  22533411.443     -150914.0713       1581.882          41.000  
G 3  20849653.580       -4059.8923        445.465          45.000  
G30  24219076.494      372969.2243      -3591.912          37.000  
G10  23798098.419      -55159.8183        322.407          36.000  
G 8  25536372.892     -162684.3433       1881.672          34.000  
G 6  21795905.911      139181.5563       -839.089          42.000  
G13  20578144.298     -153572.4503       1532.382          45.000  
G11  25883620.847      -57317.4103       1675.157          33.000  
G19  22020340.700     -195217.3113       2317.139          42.000  
G23  19983333.733       50885.2133       -750.826          45.000  
> 2012  9 14 12 46 23.0000000  0 16                     
G32  25085731.733      353451.7493      -3320.252          31.000  
G16  22009139.510      291660.0183      -3087.844          43.000  
S35  37884039.262       26291.3643       -269.206          43.000  
G20  23823780.515      312077.1853      -3236.636          35.000  
S38  36830878.172       69828.9303       -264.561          45.000  
S33  36561169.578       39275.2403       -279.999          42.000  
G 7  22533110.305     -152497.3103       1580.871          41.000  
G 3  20849568.719       -4506.5863        444.795          45.000  
G30  24219759.792      376559.3853      -3592.512          37.000  
G10  23798037.448      -55481.8913        319.874          36.000  
G 8  25536014.482     -164566.5163       1880.641          34.000  
G 6  21796065.598      140020.0593       -840.329          42.000  
G13  20577852.775     -155105.8843       1531.923          45.000  
G11  25883302.486      -58992.5973       1674.755          33.000  
G19  22019898.948     -197535.6023       2316.926          42.000  
G23  19983475.865       51635.1303       -751.504          45.000  
> 2012  9 14 12 46 28.0000000  0 16                     
G32  25088888.547      370045.8722      -3319.828          30.000  
G16  22012076.137      307093.6162      -3088.093          44.000  
S35  37884292.517       27628.0032       -268.292          43.000  
G20  23826857.198      328252.6792      -3237.608          35.000  
S38  36831127.919       71143.8052       -263.885          45.000  
S33  36561434.054       40667.5502       -278.608          42.000  
G 7  22531604.055     -160412.6152       1582.254          41.000  
G 3  20849144.470       -6729.4872        442.361          44.000  
G30  24223175.026      394510.4022      -3590.715          37.000  
G10  23797732.157      -57083.1492        317.835          36.000  
G 8  25534223.077     -173977.6492       1882.656          34.000  
G 6  21796864.940      144222.4002       -842.440          43.000  
G13  20576395.437     -162765.9432       1530.774          45.000  
G11  25881706.140      -67373.3272       1677.137          33.000  
G19  22017694.549     -209120.9722       2315.833          42.000  
G23  19984191.167       55394.2342       -753.581          45.000  
> 2012  9 14 12 46 31.0000000  0 16                     
G32  25090782.454      379999.6413      -3316.756          30.000  
G16  22013839.290      316355.4513      -3083.293          44.000  
S35  37884445.590       28429.3913       -263.375          43.000  
G20  23828704.112      337956.9793      -3230.944          35.000  
S38  36831277.520       71931.3293       -258.191          45.000  
S33  36561592.659       41502.3373       -273.071          42.000  
G 7  22530699.994     -165162.2943       1586.611          41.000  
G 3  20848892.157       -8055.9033        445.022          44.000  
G30  24225223.385      405280.1102      -3584.974          37.000  
G10  23797550.098      -58037.8193        321.698          36.000  
G 8  25533149.156     -179625.7483       1886.978          34.000  
G 6  21797345.851      146750.5403       -840.140          42.000  
G13  20575520.990     -167357.3253       1533.085          45.000  
G11  25880748.681      -72406.6123       1684.162          34.000  
G19  22016372.259     -216068.4533       2318.707          42.000  
G23  19984621.437       57656.2153       -750.773          45.000  
> 2012  9 14 12 46 32.0000000  0 16                     
G32  25091414.344      383317.1953      -3319.710          31.000  
G16  22014426.804      319443.0253      -3088.880          44.000  
S35  37884496.248       28696.2863       -268.360          43.000  
G20  23829319.947      341191.5873      -3235.975          35.000  
S38  36831327.078       72193.7643       -263.808          45.000  
S33  36561645.306       41780.5653       -279.373          42.000  
G 7  22530398.646     -166745.5633       1581.950          41.000  
G 3  20848808.082       -8496.8043        439.887          45.000  
G30  24225906.474      408869.8643      -3589.760          36.000  
G10  23797490.000      -58355.0803        315.635          36.000  
G 8  25532790.572     -181508.6723       1882.138          34.000  
G 6  21797506.619      147594.3773       -844.820          42.000  
G13  20575230.094     -168886.9923       1528.592          45.000  
G11  25880428.697      -74085.1333       1678.423          33.000  
G19  22015931.693     -218383.6153       2313.906          42.000  
G23  19984765.087       58411.3113       -756.787          45.000  
> 2012  9 14 12 46 33.0000000  0 16                     
G32  25092046.304      386634.9333      -3319.441          31.000  
G16  22015015.556      322531.0873      -3089.366          43.000  
S35  37884547.255       28963.4833       -267.720          43.000  
G20  23829935.417      344426.4573      -3237.238          36.000  
S38  36831377.352       72456.6943       -263.850          45.000  
S33  36561698.267       42059.1213       -279.971          42.000  
G 7  22530096.408     -168328.4963       1581.870          42.000  
G 3  20848723.535       -8936.6663        438.589          45.000  
G30  24226588.620      412459.9073      -3590.613          37.000  
G10  23797430.529      -58671.4603        314.640          36.000  
G 8  25532432.929     -183391.3493       1881.791          34.000  
G 6  21797667.720      148439.1543       -846.355          43.000  
G13  20574939.915     -170415.9153       1527.590          44.000  
G11  25880109.445      -75763.7313       1678.900          33.000  
G19  22015492.558     -220698.1043       2313.635          42.000  
G23  19984907.760       59167.3803       -757.131          45.000  
> 2012  9 14 12 46 35.0000000  0 16                     
G32  25093308.513      393268.3953      -3316.667          31.000  
G16  22016191.125      328706.5013      -3089.369          43.000  
S35  37884648.641       29496.5823       -267.777          43.000  
G20  23831167.664      350894.8573      -3235.404          37.000  
S38  36831476.766       72980.8863       -263.608          45.000  
S33  36561803.667       42614.5653       -278.698          42.000  
G 7  22529493.678     -171495.6693       1582.792          42.000  
G 3  20848555.996       -9815.8263        437.574          45.000  
G30  24227954.257      419638.5893      -3590.642          38.000  
G10  23797310.507      -59303.7993        315.295          35.000  
G 8  25531715.464     -187158.2083       1882.348          33.000  
G 6  21797988.664      150129.2583       -846.936          43.000  
G13  20574359.084     -173473.7293       1527.278          44.000  
G11  25879470.034      -79123.3413       1676.265          32.000  
G19  22014612.404     -225327.2953       2313.750          41.000  
G23  19985194.398       60679.8803       -757.788          45.000  
> 2012  9 14 12 46 40.0000000  0 16                     
G32  25096462.588      409845.1083      -3314.708          29.000  
G16  22019131.871      344144.1283      -3089.154          43.000  
S35  37884900.849       30824.8573       -267.049          42.000  
G20  23834240.944      367061.1103      -3234.715          40.000  
S38  36831724.647       74286.5243       -262.561          43.000  
S33  36562066.589       43999.3083       -277.940          41.000  
G 7  22527983.379     -179417.3323       1583.628          46.000  
G 3  20848126.546      -12006.0203        435.732          44.000  
G30  24231361.360      437580.8423      -3589.735          40.000  
G10  23797015.057      -60879.1933        312.559          37.000  
G 8  25529931.947     -196535.7883       1869.022           8.000  
G 6  21798790.414      154361.1743       -848.962          47.000  
G13  20572905.429     -181114.7053       1526.081          47.000  
G11  25877868.540      -87532.3903       1681.713          31.000  
G19  22012412.909     -236898.0793       2311.776          42.000  
G23  19985894.658       64467.1843       -759.836          43.000  
> 2012  9 14 12 46 43.0000000  0 15                     
G32  25098354.278      419789.7013      -3315.077          29.000  
G16  22020895.076      353409.6143      -3089.544          43.000  
S35  37885051.339       31621.4713       -266.275          42.000  
G20  23836086.008      376761.0423      -3233.615          40.000  
S38  36831874.073       75070.0163       -262.878          43.000  
S33  36562225.142       44830.7363       -278.056          41.000  
G 7  22527079.231     -184169.6033       1582.962          46.000  
G 3  20847874.739      -13311.6943        433.000          44.000  
G30  24233407.799      448346.3403      -3589.218          39.000  
G10  23796837.711      -61817.1263        311.608          37.000  
G 6  21799275.007      156908.2403       -850.915          46.000  
G13  20572033.721     -185693.3603       1524.532          47.000  
G11  25876907.400      -92581.4823       1681.209          31.000  
G19  22011094.684     -243835.4933       2311.276          42.000  
G23  19986329.098       66747.5053       -762.418          43.000  
> 2012  9 14 12 46 44.0000000  0 15                     
G32  25098984.057      423103.7093      -3314.468          29.000  
G16  22021482.817      356497.9883      -3089.632          43.000  
S35  37885102.259       31886.2633       -265.877          42.000  
G20  23836701.477      379993.7762      -3233.106          40.000  
S38  36831924.068       75330.5153       -262.246          43.000  
S33  36562277.597       45107.2913       -277.849          41.000  
G 7  22526778.354     -185754.1563       1583.547          47.000  
G 3  20847792.392      -13746.1103        433.328          44.000  
G30  24234090.870      451934.2692      -3589.129          39.000  
G10  23796777.682      -62129.1953        309.876          37.000  
G 6  21799436.823      157757.9713       -851.144          46.000  
G13  20571743.401     -187219.2072       1524.751          47.000  
G11  25876586.630      -94265.7433       1679.753          31.000  
G19  22010655.462     -246147.7483       2310.279          42.000  
G23  19986474.685       67508.2853       -761.829          43.000  
> 2012  9 14 12 46 45.0000000  0 15                     
G32  25099614.062      426417.6333      -3314.367          29.000  
G16  22022070.557      359586.6692      -3089.149          43.000  
S35  37885152.184       32151.2562       -265.375          42.000  
G20  23837316.998      383226.5912      -3233.350          40.000  
S38  36831974.045       75591.1332       -261.346          43.000  
S33  36562330.175       45383.9442       -277.308          41.000  
G 7  22526477.250     -187338.5622       1583.476          47.000  
G 3  20847709.783      -14179.7352        432.401          44.000  
G30  24234773.331      455522.3142      -3588.830          39.000  
G10  23796717.234      -62440.5202        310.439          36.000  
G 6  21799598.831      158608.4622       -851.579          46.000  
G13  20571453.449     -188744.4842       1524.373          47.000  
G11  25876266.314      -95950.1653       1685.228          31.000  
G19  22010216.973     -248459.4952       2310.407          42.000  
G23  19986619.732       68269.8072       -762.641          43.000  
> 2012  9 14 12 46 47.0000000  0 15                     
G32  25100875.085      433045.2213      -3314.677          29.000  
G16  22023246.283      365764.7563      -3087.444          43.000  
S35  37885253.186       32681.7073       -263.971          42.000  
G20  23838546.855      389692.2583      -3232.098          41.000  
S38  36832072.046       76113.0613       -258.235          43.000  
S33  36562435.452       45937.1873       -274.144          41.000  
G 7  22525873.787     -190507.2103       1585.494          47.000  
G 3  20847545.035      -15044.8283        432.453          44.000  
G30  24236138.165      462698.4633      -3586.109          39.000  
G10  23796595.659      -63061.4343        310.552          36.000  
G 6  21799922.393      160311.4143       -850.476          46.000  
G13  20570872.478     -191793.5603       1525.215          47.000  
G11  25875625.158      -99319.9893       1686.747          31.000  
G19  22009336.941     -253081.7233       2312.527          42.000  
G23  19986910.347       69794.7673       -762.190          43.000  
> 2012  9 14 12 46 52.0000000  0 15                     
G32  25104027.850      449612.6833      -3316.016          30.000  
G16  22026186.278      381214.7313      -3091.172          43.000  
S35  37885505.865       34010.3213       -266.793          42.000  
G20  23841622.438      405857.3053      -3233.800          41.000  
S38  36832320.101       77418.1043       -261.811          43.000  
S33  36562699.002       47321.3503       -276.661          41.000  
G 7  22524366.140     -198427.0583       1582.989          47.000  
G 3  20847135.356      -17194.4673        427.919          44.000  
G30  24239553.783      480639.7813      -3590.028          39.000  
G10  23796300.715      -64602.5583        306.451          36.000  
G 6  21800735.311      164580.9963       -856.290          47.000  
G13  20569423.657     -199407.0713       1521.083          47.000  
G11  25874020.977     -107749.2723       1684.213          30.000  
G19  22007136.120     -264629.3943       2307.537          42.000  
G23  19987635.421       73619.1123       -767.165          43.000  
> 2012  9 14 12 46 55.0000000  0 15                     
G32  25105919.175      459550.6943      -3313.352          29.000  
G16  22027949.989      390486.4442      -3091.925          43.000  
S35  37885657.298       34806.3753       -265.769          42.000  
G20  23843469.369      415555.3393      -3233.712          41.000  
S38  36832469.597       78200.5383       -261.636          43.000  
S33  36562856.735       48151.5403       -277.805          41.000  
G 7  22523461.923     -203179.3133       1582.830          47.000  
G 3  20846889.989      -18476.8343        425.543          43.000  
G30  24241602.980      491403.6943      -3589.020          40.000  
G10  23796126.300      -65521.1362        303.604          36.000  
G 6  21801224.353      167149.5413       -857.973          47.000  
G13  20568554.985     -203970.4043       1518.752          47.000  
G11  25873057.149     -112811.5433       1687.642          29.000  
G19  22005818.123     -271554.1243       2306.617          42.000  
G23  19988073.893       75920.3553       -769.284          43.000  
> 2012  9 14 12 46 56.0000000  0 15                     
G32  25106549.389      462862.4073      -3313.796          30.000  
G16  22028538.027      393576.8273      -3091.776          43.000  
S35  37885707.729       35071.2153       -266.333          42.000  
G20  23844084.402      418787.4103      -3233.415          41.000  
S38  36832518.841       78460.8883       -261.236          43.000  
S33  36562908.702       48427.7983       -277.465          41.000  
G 7  22523160.348     -204763.9193       1583.531          47.000  
G 3  20846808.496      -18903.5063        425.138          43.000  
G30  24242285.196      494991.0533      -3589.286          40.000  
G10  23796068.837      -65826.7583        304.199          37.000  
G 6  21801387.321      168006.4083       -858.366          47.000  
G13  20568265.817     -205491.1653       1519.464          47.000  
G11  25872735.733     -114500.1693       1686.267          29.000  
G19  22005378.534     -273862.1773       2306.602          42.000  
G23  19988220.405       76688.0853       -769.701          43.000  
> 2012  9 14 12 46 57.0000000  0 15                     
G32  25107179.377      466174.0673      -3312.633          29.000  
G16  22029125.087      396667.4933      -3092.206          43.000  
S35  37885757.707       35336.1123       -266.183          42.000  
G20  23844699.103      422019.5193      -3233.667          41.000  
S38  36832568.190       78721.5093       -261.920          43.000  
S33  36562961.105       48703.9923       -277.564          41.000  
G 7  22522858.459     -206348.4413       1582.993          47.000  
G 3  20846727.108      -19329.4483        423.810          43.000  
G30  24242968.198      498578.4533      -3588.020          40.000  
G10  23796011.199      -66131.7323        304.555          37.000  
G 6  21801550.568      168863.9753       -859.344          47.000  
G13  20567977.348     -207011.4293       1518.838          47.000  
G11  25872413.079     -116189.1433       1687.737          29.000  
G19  22004939.242     -276169.8003       2305.947          42.000  
G23  19988366.812       77456.4653       -769.952          43.000  
> 2012  9 14 12 46 59.0000000  0 15                     
G32  25108440.085      472798.3103      -3312.627          29.000  
G16  22030300.987      402850.8293      -3092.925          43.000  
S35  37885858.726       35867.0883       -266.909          42.000  
G20  23845927.983      428485.0723      -3234.198          41.000  
S38  36832667.395       79243.7923       -262.694          43.000  
S33  36563066.801       49257.8412       -278.051          41.000  
G 7  22522255.484     -209515.9733       1582.226          47.000  
G 3  20846565.956      -20177.8623        422.383          43.000  
G30  24244333.782      505754.6313      -3589.051          40.000  
G10  23795897.249      -66738.6412        300.618          37.000  
G 6  21801876.485      170582.3673       -860.982          47.000  
G13  20567398.507     -210049.1813       1517.110          47.000  
G11  25871771.678     -119566.6283       1689.315          28.000  
G19  22004060.676     -280782.4823       2304.812          42.000  
G23  19988659.802       78996.5053       -772.294          43.000  
> 2012  9 14 12 47  4.0000000  0 15                     
G32  25111588.646      489354.6973      -3307.192          30.000  
G16  22033242.012      418311.0332      -3087.449          43.000  
S35  37886110.446       37192.0422       -260.538          42.000  
G20  23849001.123      444646.8963      -3228.438          41.000  
S38  36832914.664       80546.8533       -256.183          43.000  
S33  36563329.514       50639.9673       -272.599          41.000  
G 7  22520749.304     -217435.9543       1588.346          47.000  
G 3  20846165.438      -22288.6482        425.614          44.000  
G30  24247745.090      523693.2003      -3582.560          39.000  
G10  23795611.536      -68247.6213        303.898          37.000  
G 6  21802696.419      174887.6402       -857.663          47.000  
G13  20565953.803     -217637.2042       1520.461          47.000  
G11  25870161.826     -128017.8143       1694.628          28.000  
G19  22001866.329     -292309.0862       2309.538          42.000  
G23  19989393.130       82855.6443       -768.700          43.000  
> 2012  9 14 12 47  7.0000000  0 15                     
G32  25113478.225      499284.5663      -3310.830          31.000  
G16  22035006.805      427587.8433      -3094.539          42.000  
S35  37886261.303       37985.2053       -265.341          42.000  
G20  23850848.804      454342.0363      -3233.534          41.000  
S38  36833063.288       81327.4823       -261.108          43.000  
S33  36563486.670       51467.4273       -278.167          41.000  
G 7  22519843.044     -222189.3003       1582.801          46.000  
G 3  20845925.341      -23548.7043        417.425          44.000  
G30  24249793.170      534454.4503      -3588.952          39.000  
G10  23795438.465      -69147.8653        296.774          37.000  
G 6  21803188.463      177476.6423       -865.713          47.000  
G13  20565087.155     -222186.2753       1513.833          47.000  
G11  25869193.932     -133094.7233       1691.260          28.000  
G19  22000552.240     -299222.1663       2302.015          42.000  
G23  19989835.405       85176.7663       -776.366          43.000  
> 2012  9 14 12 47  8.0000000  0 15                     
G32  25114108.946      502594.5723      -3310.384          31.000  
G16  22035594.389      430680.9662      -3093.574          43.000  
S35  37886311.856       38250.0042       -264.754          42.000  
G20  23851464.099      457574.1542      -3232.381          41.000  
S38  36833113.056       81588.0952       -260.882          43.000  
S33  36563538.672       51743.7962       -276.156          41.000  
G 7  22519541.051     -223773.2582       1582.942          46.000  
G 3  20845845.349      -23966.9212        417.573          44.000  
G30  24250476.049      538041.9612      -3586.323          39.000  
G10  23795381.019      -69446.3352        297.674          37.000  
G 6  21803352.826      178341.3322       -865.445          47.000  
G13  20564798.546     -223701.2572       1514.303          47.000  
G11  25868870.615     -134787.0703       1693.086          29.000  
G19  22000114.187     -301525.3112       2302.135          42.000  
G23  19989982.755       85952.1412       -776.392          43.000  
> 2012  9 14 12 47  9.0000000  0 15                     
G32  25114738.393      505903.0683      -3309.695          31.000  
G16  22036182.566      433772.7723      -3093.871          43.000  
S35  37886362.217       38513.3533       -265.325          42.000  
G20  23852079.272      460804.7043      -3232.663          41.000  
S38  36833162.196       81847.0103       -260.889          43.000  
S33  36563591.215       52018.6043       -276.075          41.000  
G 7  22519238.708     -225358.6893       1583.517          46.000  
G 3  20845765.026      -24385.9693        416.965          44.000  
G30  24251158.422      541627.8893      -3587.563          39.000  
G10  23795323.957      -69745.8153        296.804          37.000  
G 6  21803517.225      179205.1373       -865.713          47.000  
G13  20564510.356     -225217.3253       1513.718          47.000  
G11  25868549.513     -136481.4713       1692.658          29.000  
G19  21999675.716     -303829.5953       2301.945          42.000  
G23  19990129.895       86726.6013       -776.052          43.000  
> 2012  9 14 12 47 10.0000000  0 15                     
G32  25115368.747      509212.4572      -3309.618          31.000  
G16  22036771.493      436865.7972      -3094.014          43.000  
S35  37886412.718       38777.7662       -265.591          42.000  
G20  23852694.392      464036.2742      -3232.287          41.000  
S38  36833211.999       82106.9272       -260.757          43.000  
S33  36563643.897       52294.4022       -276.362          41.000  
G 7  22518937.133     -226943.0782       1583.689          46.000  
G 3  20845684.964      -24803.3422        415.937          43.000  
G30  24251841.249      545214.8512      -3587.863          39.000  
G10  23795267.069      -70043.6602        295.560          37.000  
G 6  21803681.990      180070.5962       -866.464          47.000  
G13  20564221.834     -226731.8912       1513.699          47.000  
G11  25868225.009     -138175.0293       1692.933          29.000  
G19  21999237.087     -306132.4592       2302.318          42.000  
G23  19990277.908       87502.7002       -777.040          43.000  
> 2012  9 14 12 47 11.0000000  0 15                     
G32  25115998.804      512521.0833      -3307.904          31.000  
G16  22037359.566      439958.4632      -3094.088          43.000  
S35  37886462.556       39041.6883       -264.896          42.000  
G20  23853308.640      467267.2343      -3232.122          41.000  
S38  36833260.772       82366.1963       -260.091          43.000  
S33  36563696.422       52569.6242       -276.383          41.000  
G 7  22518635.594     -228528.0212       1583.533          46.000  
G 3  20845605.269      -25220.5973        415.776          43.000  
G30  24252523.570      548801.2172      -3587.568          39.000  
G10  23795210.635      -70341.5863        295.448          37.000  
G 6  21803846.929      180936.0832       -866.972          47.000  
G13  20563933.399     -228246.6012       1513.487          47.000  
G11  25867900.731     -139869.5473       1693.547          29.000  
G19  21998798.441     -308435.5353       2301.327          42.000  
G23  19990425.013       88278.8342       -777.817          43.000  
> 2012  9 14 12 47 15.0000000  0 15                     
G32  25118517.028      525752.4733      -3308.773          31.000  
G16  22039715.188      452329.6323      -3094.594          43.000  
S35  37886662.710       40095.7493       -264.906          42.000  
G20  23855768.632      480189.3953      -3232.122          41.000  
S38  36833457.750       83401.7493       -260.831          43.000  
S33  36563905.249       53669.4303       -276.526          41.000  
G 7  22517430.028     -234868.8993       1583.840          46.000  
G 3  20845288.163      -26884.2643        413.173          43.000  
G30  24255254.285      563145.1303      -3587.903          39.000  
G10  23794983.468      -71528.7552        293.912          37.000  
G 6  21804505.727      184402.9443       -869.360          47.000  
G13  20562782.470     -234302.2273       1511.726          47.000  
G11  25866615.593     -146652.3223       1695.344          29.000  
G19  21997044.223     -317645.3763       2300.145          42.000  
G23  19991016.628       91388.0533       -779.513          43.000  
> 2012  9 14 12 47 19.0000000  0 15                     
G32  25121033.384      538980.5992      -3306.157          31.000  
G16  22042070.077      464703.2082      -3093.757          43.000  
S35  37886862.515       41149.2952       -264.092          42.000  
G20  23858228.345      493110.4362      -3230.236          41.000  
S38  36833654.501       84437.6782       -259.059          43.000  
S33  36564115.192       54769.2262       -275.064          41.000  
G 7  22516222.822     -241210.1092       1585.024          46.000  
G 3  20844973.536      -28537.8712        411.420          43.000  
G30  24257983.743      577487.9862      -3586.157          39.000  
G10  23794757.697      -72707.6892        292.640          37.000  
G 6  21805166.445      187879.0262       -870.307          46.000  
G13  20561631.506     -240351.3142       1511.247          47.000  
G11  25865324.329     -153441.2163       1697.321          29.000  
G19  21995294.106     -326849.7642       2300.772          42.000  
G23  19991610.284       94506.2852       -780.924          43.000  
> 2012  9 14 12 47 21.0000000  0 15                     
G32  25122291.126      545592.5912      -3307.254          31.000  
G16  22043248.142      470890.0412      -3094.154          43.000  
S35  37886962.557       41674.6332       -262.935          42.000  
G20  23859457.276      499569.6622      -3230.381          41.000  
S38  36833752.345       84954.3632       -259.066          43.000  
S33  36564218.899       55317.8292       -273.619          41.000  
G 7  22515619.533     -244381.6612       1585.642          46.000  
G 3  20844816.903      -29361.7412        410.459          43.000  
G30  24259348.455      584658.1432      -3585.434          39.000  
G10  23794646.818      -73294.9052        292.014          37.000  
G 6  21805497.772      189619.7052       -871.405          47.000  
G13  20561056.033     -243374.2512       1510.429          47.000  
G11  25864677.502     -156838.8963       1698.468          28.000  
G19  21994418.349     -331450.8012       2299.325          42.000  
G23  19991907.444       96067.9482       -781.740          43.000  
> 2012  9 14 12 47 22.0000000  0 15                     
G32  25122920.468      548897.8473      -3306.741          31.000  
G16  22043835.935      473983.2883      -3094.484          43.000  
S35  37887012.465       41936.8503       -263.146          42.000  
G20  23860070.128      502798.7663      -3230.030          41.000  
S38  36833801.729       85212.2103       -259.103          43.000  
S33  36564271.058       55591.5853       -274.576          41.000  
G 7  22515317.208     -245967.8893       1584.926          46.000  
G 3  20844739.110      -29773.1023        410.443          43.000  
G30  24260030.375      588242.7203      -3585.879          39.000  
G10  23794591.868      -73588.1203        290.501          37.000  
G 6  21805663.689      190490.5093       -872.291          47.000  
G13  20560768.244     -244885.5083       1510.009          47.000  
G11  25864352.579     -158538.6913       1698.836          29.000  
G19  21993980.628     -333751.1923       2299.146          42.000  
G23  19992056.050       96849.2093       -782.482          43.000  
> 2012  9 14 12 47 23.0000000  0 15                     
G32  25123549.409      552202.9463      -3307.852          31.000  
G16  22044424.373      477076.7143      -3095.140          43.000  
S35  37887062.337       42199.0073       -263.195          42.000  
G20  23860683.800      506027.8143      -3229.918          41.000  
S38  36833850.711       85470.0573       -259.345          43.000  
S33  36564323.181       55865.3363       -274.593          41.000  
G 7  22515014.569     -247554.0963       1584.932          46.000  
G 3  20844660.758      -30183.8193        408.941          43.000  
G30  24260712.085      591827.2873      -3585.904          39.000  
G10  23794537.004      -73880.7773        291.441          38.000  
G 6  21805829.605      191361.9283       -873.268          47.000  
G13  20560481.188     -246396.3303       1509.227          47.000  
G11  25864029.313     -160238.8073       1699.755          29.000  
G19  21993542.610     -336051.2403       2298.037          42.000  
G23  19992205.197       97631.0623       -783.510          43.000  
> 2012  9 14 12 47 27.0000000  0 15                     
G32  25126063.793      565422.6373      -3302.010          30.000  
G16  22046780.170      489453.2813      -3094.103          44.000  
S35  37887261.532       43247.9323       -261.514          42.000  
G20  23863139.883      518944.6593      -3230.042          40.000  
S38  36834046.922       86502.1303       -256.649          43.000  
S33  36564531.031       56960.7203       -273.053          41.000  
G 7  22513806.822     -253897.7463       1586.149          46.000  
G 3  20844349.185      -31819.0103        407.317          43.000  
G30  24263439.851      606166.1733      -3584.229          39.000  
G10  23794316.172      -75044.9483        288.920          38.000  
G 6  21806493.516      194854.7313       -873.710          47.000  
G13  20559332.370     -252434.1313       1508.342          47.000  
G11  25862736.392     -167042.1083       1699.807          30.000  
G19  21991792.370     -345246.6573       2298.608          42.000  
G23  19992800.546      100765.5033       -784.704          43.000  
> 2012  9 14 12 47 28.0000000  0 15                     
G32  25126693.135      568727.3263      -3305.169          31.000  
G16  22047369.255      492548.1432      -3095.074          43.000  
S35  37887311.544       43510.4362       -262.429          42.000  
G20  23863754.689      522174.0452      -3229.456          40.000  
S38  36834095.713       86760.2422       -257.452          43.000  
S33  36564583.085       57234.7492       -273.988          41.000  
G 7  22513504.706     -255483.3542       1586.046          46.000  
G 3  20844271.130      -32225.8892        405.796          43.000  
G30  24264122.556      609751.0363      -3585.051          39.000  
G10  23794261.256      -75334.3252        288.543          38.000  
G 6  21806660.218      195729.7262       -874.937          47.000  
G13  20559045.471     -253942.2022       1507.530          47.000  
G11  25862415.238     -168743.3803       1703.064          31.000  
G19  21991355.993     -347544.3272       2297.779          42.000  
G23  19992949.850      101550.8622       -785.484          43.000  
> 2012  9 14 12 47 32.0000000  0 15                     
G32  25129207.153      581942.5813      -3304.668          30.000  
G16  22049725.087      504927.3753      -3096.774          43.000  
S35  37887511.122       44558.4413       -263.322          42.000  
G20  23866211.767      535089.1203      -3229.392          40.000  
S38  36834291.556       87791.1373       -258.632          43.000  
S33  36564790.865       58328.6803       -273.835          41.000  
G 7  22512297.116     -261827.7193       1584.971          46.000  
G 3  20843963.325      -33848.7533        403.262          44.000  
G30  24266850.461      624088.2963      -3584.403          39.000  
G10  23794040.528      -76488.3393        286.625          37.000  
G 6  21807328.108      199233.7433       -878.224          47.000  
G13  20557896.217     -259972.1123       1505.582          47.000  
G11  25861115.284     -175554.5193       1702.153          32.000  
G19  21989606.434     -356733.3353       2295.715          42.000  
G23  19993548.323      104696.2263       -788.273          43.000  
> 2012  9 14 12 47 34.0000000  0 15                     
G32  25130464.023      588549.6803      -3302.721          30.000  
G16  22050903.674      511118.6222      -3097.354          43.000  
S35  37887610.623       45083.2132       -263.760          42.000  
G20  23867441.274      541546.9013      -3230.313          40.000  
S38  36834390.045       88306.6633       -259.659          43.000  
S33  36564895.339       58876.3353       -274.923          41.000  
G 7  22511693.984     -264999.2863       1584.573          46.000  
G 3  20843809.467      -34655.6922        401.469          44.000  
G30  24268214.928      631257.2213      -3585.919          39.000  
G10  23793930.714      -77061.5462        284.935          37.000  
G 6  21807661.512      200989.9342       -879.927          47.000  
G13  20557322.332     -262983.9013       1504.109          47.000  
G11  25860467.794     -178961.6133       1701.412          33.000  
G19  21988732.091     -361325.0643       2294.123          42.000  
G23  19993848.833      106272.9983       -789.954          43.000  
> 2012  9 14 12 47 35.0000000  0 15                     
G32  25131092.056      591852.7703      -3304.292          30.000  
G16  22051492.986      514214.3623      -3097.134          43.000  
S35  37887660.583       45345.3183       -263.544          42.000  
G20  23868054.911      544775.5863      -3230.578          40.000  
S38  36834439.220       88564.1823       -258.903          43.000  
S33  36564947.079       59149.7223       -274.387          41.000  
G 7  22511392.165     -266585.2043       1584.551          46.000  
G 3  20843732.651      -35058.3123        401.048          44.000  
G30  24268897.197      634841.4843      -3586.072          39.000  
G10  23793875.693      -77347.4843        283.827          37.000  
G 6  21807828.598      201868.7883       -880.619          47.000  
G13  20557035.293     -264489.2833       1503.712          47.000  
G11  25860143.761     -180665.8863       1702.737          33.000  
G19  21988295.888     -363620.5233       2293.785          42.000  
G23  19993999.324      107062.1153       -790.582          44.000  
> 2012  9 14 12 47 38.0000000  0 15                     
G32  25132978.128      601760.5943      -3302.938          30.000  
G16  22053258.250      523502.1332      -3097.059          42.000  
S35  37887809.416       46130.5292       -262.535          42.000  
G20  23869896.782      554460.8702      -3228.984          40.000  
S38  36834584.703       89335.7393       -258.155          43.000  
S33  36565102.264       59969.8802       -275.095          41.000  
G 7  22510486.359     -271343.4392       1585.071          46.000  
G 3  20843502.221      -36262.7162        399.727          44.000  
G30  24270942.397      645593.5593      -3583.799          39.000  
G10  23793711.661      -78202.4812        283.511          37.000  
G 6  21808330.047      204508.4812       -881.475          47.000  
G13  20556174.474     -269003.3362       1502.927          46.000  
G11  25859169.236     -185781.2763       1701.769          33.000  
G19  21986988.011     -370505.2472       2293.496          43.000  
G23  19994449.871      109432.5392       -791.677          44.000  
> 2012  9 14 12 47 40.0000000  0 15                     
G32  25134235.364      608364.1593      -3301.440          31.000  
G16  22054434.865      529694.2003      -3098.591          41.000  
S35  37887909.284       46653.3303       -264.292          42.000  
G20  23871125.242      560916.8063      -3229.962          39.000  
S38  36834682.581       89849.4493       -259.021          43.000  
S33  36565206.511       60516.2363       -277.021          41.000  
G 7  22509880.802     -274516.2433       1583.232          46.000  
G 3  20843349.566      -37063.0643        395.896          44.000  
G30  24272306.097      652760.7293      -3587.404          39.000  
G10  23793603.156      -78770.4573        279.940          36.000  
G 6  21808664.306      206270.6113       -884.545          47.000  
G13  20555600.903     -272011.1913       1500.288          46.000  
G11  25858520.297     -189193.9663       1704.380          33.000  
G19  21986114.785     -375093.9043       2291.029          43.000  
G23  19994751.044      111015.0863       -795.099          44.000  
> 2012  9 14 12 47 43.0000000  0 15                     
G32  25136122.151      618270.4343      -3303.310          31.000  
G16  22056199.937      538985.8613      -3098.604          39.000  
S35  37888057.454       47439.6403       -263.652          42.000  
G20  23872969.521      570602.6383      -3229.784          40.000  
S38  36834829.163       90622.3253       -258.415          43.000  
S33  36565363.249       61337.5563       -274.906          41.000  
G 7  22508974.124     -279273.0963       1584.702          46.000  
G 3  20843123.220      -38256.3053        395.820          44.000  
G30  24274350.983      663513.4663      -3585.761          39.000  
G10  23793441.898      -79616.0273        279.347          36.000  
G 6  21809167.221      208920.6473       -885.633          47.000  
G13  20554741.061     -276517.4003       1500.227          45.000  
G11  25857545.720     -194313.3693       1705.300          33.000  
G19  21984805.268     -381971.8263       2291.162          43.000  
G23  19995204.035      113395.6093       -795.093          45.000  
> 2012  9 14 12 47 45.0000000  0 15                     
G32  25137378.235      624871.9343      -3300.460          31.000  
G16  22057377.461      545179.4703      -3098.616          37.000  
S35  37888157.234       47961.9053       -262.325          42.000  
G20  23874198.784      577057.8533      -3228.254          40.000  
S38  36834927.495       91135.7123       -258.373          43.000  
S33  36565467.183       61883.0343       -274.031          41.000  
G 7  22508369.107     -282446.0603       1584.963          46.000  
G 3  20842972.380      -39050.2593        395.214          45.000  
G30  24275713.583      670679.9803      -3585.316          39.000  
G10  23793334.754      -80178.8193        278.400          35.000  
G 6  21809503.190      210688.6253       -886.274          46.000  
G13  20554167.507     -279521.1033       1499.638          44.000  
G11  25856895.542     -197729.8503       1707.293          33.000  
G19  21983930.559     -386557.0363       2291.054          43.000  
G23  19995506.325      114983.8323       -795.903          45.000  
> 2012  9 14 12 47 46.0000000  0 15                     
G32  25138006.478      628172.8343      -3300.943          31.000  
G16  22057966.109      548276.8393      -3099.026          36.000  
S35  37888206.880       48223.1922       -262.668          42.000  
G20  23874813.538      580285.7282      -3228.504          40.000  
S38  36834976.285       91392.7622       -258.239          43.000  
S33  36565518.783       62156.2352       -274.737          41.000  
G 7  22508066.538     -284032.1772       1585.346          46.000  
G 3  20842896.943      -39445.9173        394.075          45.000  
G30  24276395.032      674263.5653      -3584.031          39.000  
G10  23793280.990      -80459.0363        278.658          35.000  
G 6  21809671.341      211573.8532       -886.690          46.000  
G13  20553881.603     -281021.9452       1499.930          44.000  
G11  25856569.921     -199438.2793       1706.891          33.000  
G19  21983493.291     -388848.7543       2290.702          43.000  
G23  19995657.740      115779.1713       -796.664          46.000  
> 2012  9 14 12 47 47.0000000  0 15                     
G32  25138634.703      631473.2653      -3301.617          31.000  
G16  22058554.565      551374.2662      -3099.433          35.000  
S35  37888256.561       48484.3012       -262.094          42.000  
G20  23875428.099      583513.3982      -3228.342          40.000  
S38  36835024.919       91649.7192       -257.480          43.000  
S33  36565570.453       62429.1482       -273.779          41.000  
G 7  22507764.527     -285618.4682       1585.117          46.000  
G 3  20842821.156      -39841.0472        394.080          45.000  
G30  24277076.411      677846.9082      -3583.444          40.000  
G10  23793227.243      -80738.8133        279.462          34.000  
G 6  21809839.072      212459.5182       -887.064          46.000  
G13  20553595.123     -282522.5172       1499.094          43.000  
G11  25856244.719     -201147.2632       1707.443          32.000  
G19  21983056.599     -391140.2592       2291.018          43.000  
G23  19995809.330      116574.9362       -797.310          46.000  
> 2012  9 14 12 47 51.0000000  0 13                     
G16  22060826.112      563765.0583      -3103.132          28.000  
S35  37888454.813       49528.2452       -261.639          42.000  
G20  23877885.928      596423.2563      -3227.149          40.000  
S38  36835219.838       92676.5483       -257.316          43.000  
S33  36565777.919       63519.6553       -273.811          41.000  
G 7  22506554.197     -291963.8552       1585.847          45.000  
G 3  20842521.170      -41415.3882        391.402          45.000  
G30  24279801.646      692179.5592      -3584.065          39.000  
G10  23793010.983      -81853.0022        278.392          32.000  
G 6  21810511.604      216007.8893       -889.097          46.000  
G13  20552449.376     -288520.7293       1498.336          41.000  
G19  21981314.980     -400302.9862       2289.722          44.000  
G23  19996415.167      119763.5583       -798.804          47.000  
> 2012  9 14 12 47 55.0000000  0 14                     
G16  22063179.920      576158.5052      -3097.493          30.000  
S35  37888653.570       50572.1972       -262.081          42.000  
G20  23880344.541      609332.0802      -3229.211          40.000  
S38  36835415.717       93702.5842       -257.796          43.000  
S33  36565984.913       64609.7052       -274.941          41.000  
G 7  22505344.461     -298309.3272       1585.149          45.000  
G 3  20842223.364      -42979.4262        388.246          46.000  
G30  24282526.550      706511.3402      -3584.134          40.000  
G10  23792800.533      -82958.7133        275.776          30.000  
G 8  25502924.332     -338024.1053       1895.183          19.000  
G 6  21811187.276      219565.7702       -891.555          45.000  
G13  20551304.677     -294512.1442       1495.903          37.000  
G19  21979575.560     -409460.0582       2287.304          44.000  
G23  19997023.569      122961.3872       -801.972          47.000  
> 2012  9 14 12 47 56.0000000  0 14                     
G16  22063762.792      579257.1722      -3098.022          32.000  
S35  37888703.461       50833.0962       -261.532          42.000  
G20  23880959.487      612559.0302      -3227.265          40.000  
S38  36835464.263       93958.7832       -256.180          43.000  
S33  36566036.828       64882.0032       -272.106          41.000  
G 7  22505041.787     -299895.8292       1586.343          45.000  
G 3  20842149.131      -43368.9382        388.562          46.000  
G30  24283207.859      710094.0242      -3582.348          40.000  
G10  23792747.833      -83233.8893        272.247          29.000  
G 8  25502552.677     -339917.9013       1891.708          21.000  
G 6  21811356.002      220456.5902       -891.485          45.000  
G13  20551019.453     -296009.0442       1496.470          35.000  
G19  21979139.846     -411748.5482       2288.294          45.000  
G23  19997176.188      123762.1782       -801.278          47.000  
> 2012  9 14 12 47 58.0000000  0 14                     
G16  22064947.470      585453.7812      -3099.498          35.000  
S35  37888802.194       51353.2312       -261.071          42.000  
G20  23882187.267      619011.5232      -3226.777          40.000  
S38  36835560.658       94469.6452       -256.554          43.000  
S33  36566139.819       65425.2192       -272.992          41.000  
G 7  22504436.526     -303070.0422       1585.982          45.000  
G 3  20842000.647      -44147.2232        387.513          46.000  
G30  24284569.813      717258.0352      -3583.245          39.000  
G10  23792642.521      -83783.6603        273.359          27.000  
G 8  25501831.285     -343705.9603       1885.604          21.000  
G 6  21811694.013      222238.8452       -892.842          45.000  
G13  20550377.198     -299003.0272       1497.180          33.000  
G19  21978268.818     -416325.6792       2287.340          45.000  
G23  19997480.712      125364.2792       -802.989          48.000  
> 2012  9 14 12 47 59.0000000  0 13                     
G16  22065537.479      588552.7392      -3098.783          36.000  
S35  37888851.456       51613.5912       -260.445          42.000  
G20  23882802.352      622238.0382      -3226.487          40.000  
S38  36835609.449       94725.4912       -255.696          43.000  
S33  36566191.280       65697.2822       -271.942          41.000  
G 7  22504132.822     -304656.7692       1587.467          44.000  
G 3  20841927.147      -44535.0142        387.468          47.000  
G30  24285250.599      720840.3102      -3583.138          39.000  
G 8  25501471.619     -345599.3593       1887.522          21.000  
G 6  21811862.442      223131.2252       -892.558          44.000  
G13  20550082.952     -300498.9132       1497.505          32.000  
G19  21977833.592     -418613.3302       2287.955          45.000  
G23  19997633.785      126166.5752       -802.469          48.000  
> 2012  9 14 12 48  0.0000000  0 13                     
G16  22066126.982      591652.0302      -3100.378          37.000  
S35  37888900.648       51874.0732       -261.605          42.000  
G20  23883416.792      625464.7312      -3227.191          40.000  
S38  36835658.327       94981.4162       -256.417          43.000  
S33  36566242.636       65969.6902       -272.711          41.000  
G 7  22503829.817     -306243.3112       1585.416          44.000  
G 3  20841852.931      -44921.9512        385.560          47.000  
G30  24285931.611      724422.7762      -3582.991          39.000  
G 8  25501107.764     -347491.9133       1899.290          22.000  
G 6  21812031.797      224024.4092       -894.516          44.000  
G13  20549804.900     -301994.1752       1493.879          33.000  
G19  21977398.541     -420900.4242       2285.954          44.000  
G23  19997786.405      126969.6572       -804.217          48.000  
> 2012  9 14 12 48  2.0000000  0 13                     
G16  22067304.959      597849.865       -3100.561          39.000  
S35  37889000.027       52394.3202       -260.905          42.000  
G20  23884646.194      631916.633       -3227.972          40.000  
S38  36835755.315       95492.4452       -257.375          43.000  
S33  36566345.731       66513.5872       -273.699          41.000  
G 7  22503223.841     -309417.152        1586.225          43.000  
G 3  20841705.424      -45694.642         384.247          47.000  
G30  24287292.501      731586.295       -3583.766          38.000  
G 8  25500386.669     -351279.7493       1901.323          23.000  
G 6  21812370.017      225811.286        -895.316          44.000  
G13  20549225.989     -304984.1592       1494.017          35.000  
G19  21976528.089     -425474.285        2285.839          45.000  
G23  19998092.046      128576.797        -805.429          48.000  
> 2012  9 14 12 48  4.0000000  0 13                     
G16  22068482.308      604049.940       -3102.062          40.000  
S35  37889098.848       52915.3612       -261.976          42.000  
G20  23885875.440      638369.860       -3227.922          40.000  
S38  36835852.723       96004.9012       -257.411          43.000  
S33  36566449.979       67058.4822       -273.400          41.000  
G 7  22502617.341     -312589.939        1584.904          42.000  
G 3  20841559.034      -46463.677         382.481          47.000  
G30  24288653.129      738751.135       -3584.211          38.000  
G 8  25499660.112     -355067.0533       1892.576          24.000  
G 6  21812707.923      227602.070        -897.048          43.000  
G13  20548651.790     -307971.3372       1491.584          37.000  
G19  21975658.213     -430045.660        2284.098          45.000  
G23  19998397.198      130187.310        -807.152          49.000  
> 2012  9 14 12 48  5.0000000  0 13                     
G16  22069071.270      607149.889       -3102.018          41.000  
S35  37889148.162       53175.4182       -261.493          42.000  
G20  23886489.565      641596.042       -3228.462          39.000  
S38  36835901.531       96260.7012       -257.496          43.000  
S33  36566501.998       67330.4772       -273.372          41.000  
G 7  22502313.899     -314176.677        1584.869          41.000  
G 3  20841485.325      -46847.548         382.344          48.000  
G30  24289333.845      742333.167       -3583.050          37.000  
G 8  25499297.880     -356960.6653       1894.530          25.000  
G 6  21812877.609      228498.039        -897.543          43.000  
G13  20548368.154     -309464.5982       1491.393          39.000  
G19  21975223.354     -432331.129        2283.609          45.000  
G23  19998550.061      130993.106        -807.502          49.000  
> 2012  9 14 12 48  9.0000000  0 14                     
G16  22071423.717      619552.0083      -3098.380          43.000  
S35  37889345.786       54215.0263       -257.535          42.000  
G20  23888947.516      654500.8603      -3224.120          38.000  
S38  36836096.223       97283.1672       -252.971          43.000  
S33  36566708.993       68418.0813       -270.356          41.000  
G 7  22501099.032     -320523.4223       1588.731          38.000  
G 3  20841193.784      -48376.3953        383.433          48.000  
G30  24292057.388      756661.4043      -3579.869          36.000  
G10  23791979.745      -86768.7123        271.181          31.000  
G 8  25497860.384     -364537.5263       1896.672          27.000  
G 6  21813556.981      232088.4883       -895.621          41.000  
G13  20547227.852     -315433.174        1493.502          42.000  
G19  21973484.981     -441469.2353       2286.214          45.000  
G23  19999163.716      134222.2553       -806.091          49.000  
> 2012  9 14 12 48 14.0000000  0 14                     
G16  22074365.963      635060.9083      -3103.216          45.000  
S35  37889593.753       55517.2693       -261.701          42.000  
G20  23892018.859      670633.1143      -3228.702          35.000  
S38  36836338.973       98564.2903       -257.127          43.000  
S33  36566967.710       69779.9633       -273.438          41.000  
G 7  22499503.489     -328453.9153       1585.875          33.000  
G 3  20840833.699      -50269.5813        375.721          48.000  
G30  24295462.431      774573.2273      -3583.483          34.000  
G10  23791730.032      -88099.7803        263.775          35.000  
G 8  25496063.884     -374008.6603       1893.373          28.000  
G 6  21814403.124      236592.5493       -903.296          36.000  
G13  20545802.152     -322880.9253       1487.536          45.000  
G19  21971313.266     -452880.5013       2280.469          45.000  
G23  19999936.150      138275.0053       -813.180          49.000  
> 2012  9 14 12 48 16.0000000  0 14                     
G16  22075541.811      641264.9223      -3103.553          45.000  
S35  37889692.452       56037.7353       -261.535          41.000  
G20  23893246.621      677084.9163      -3227.270          33.000  
S38  36836436.485       99075.4843       -256.577          43.000  
S33  36567071.591       70323.4293       -274.464          41.000  
G 7  22498888.648     -331626.7663       1585.199          32.000  
G 3  20840689.508      -51023.0093        374.762          48.000  
G30  24296823.688      781736.9093      -3582.743          33.000  
G10  23791623.882      -88628.9993        262.325          36.000  
G 8  25495346.191     -377798.3553       1893.260          28.000  
G 6  21814739.634      238397.6153       -906.408          33.000  
G13  20545230.378     -325857.7153       1486.760          46.000  
G19  21970444.542     -457443.1963       2279.283          45.000  
G23  20000244.513      139899.4643       -814.214          49.000  
> 2012  9 14 12 48 17.0000000  0 14                     
G16  22076128.941      644367.3453      -3103.861          45.000  
S35  37889741.731       56298.1263       -261.209          42.000  
G20  23893859.752      680310.9263      -3227.549          32.000  
S38  36836485.293       99331.3122       -257.130          43.000  
S33  36567123.610       70595.3092       -273.827          41.000  
G 7  22498576.429     -333213.0452       1585.627          33.000  
G 3  20840617.874      -51398.5543        373.922          48.000  
G30  24297505.014      785318.8443      -3583.257          32.000  
G10  23791571.322      -88892.6503        261.227          37.000  
G 8  25494987.676     -379693.0983       1894.754          29.000  
G 6  21814853.497      239301.2853       -905.187          33.000  
G13  20544945.119     -327345.2733       1486.088          46.000  
G19  21970011.323     -459723.8063       2279.349          45.000  
G23  20000399.767      140712.7563       -814.972          49.000  
> 2012  9 14 12 48 18.0000000  0 14                     
G16  22076715.792      647469.2513      -3103.945          45.000  
S35  37889791.063       56557.7093       -261.901          41.000  
G20  23894471.784      683535.9013      -3227.490          31.000  
S38  36836534.014       99586.4843       -257.500          43.000  
S33  36567174.669       70866.5233       -272.706          41.000  
G 7  22498272.655     -334799.9953       1585.331          33.000  
G 3  20840546.346      -51774.1243        373.123          48.000  
G30  24298153.307      788900.0193      -3581.704          31.000  
G10  23791522.200      -89156.3913        262.127          37.000  
G 8  25494627.399     -381588.7523       1893.165          29.000  
G 6  21815017.704      240204.6803       -906.135          33.000  
G13  20544659.512     -328833.0683       1485.339          46.000  
G19  21969578.086     -462004.7413       2278.780          45.000  
G23  20000554.498      141525.9493       -815.876          49.000  
> 2012  9 14 12 48 20.0000000  0 14                     
G16  22077889.930      653673.8713      -3103.786          45.000  
S35  37889889.744       57076.9793       -260.997          41.000  
G20  23895681.066      689986.4063      -3225.928          29.000  
S38  36836630.706      100097.0823       -256.042          43.000  
S33  36567277.433       71409.1583       -272.255          40.000  
G 7  22497660.188     -337973.5473       1585.613          35.000  
G 3  20840403.464      -52523.0213        372.908          48.000  
G30  24299471.217      796062.5403      -3581.574          31.000  
G10  23791422.926      -89682.0243        261.018          38.000  
G 8  25493906.339     -385379.7153       1894.903          29.000  
G 6  21815349.380      242013.8293       -905.532          32.000  
G13  20544089.047     -331807.0663       1485.899          47.000  
G19  21968710.950     -466565.1973       2278.814          45.000  
G23  20000864.135      143154.3903       -815.766          49.000  
> 2012  9 14 12 48 21.0000000  0 14                     
G16  22078476.571      656776.1973      -3103.024          45.000  
S35  37889938.570       57336.4733       -260.346          41.000  
G20  23896280.202      693211.3533      -3226.215          27.000  
S38  36836679.095      100352.1683       -255.837          43.000  
S33  36567329.296       71680.1663       -271.593          40.000  
G 7  22497356.903     -339560.5263       1586.185          36.000  
G 3  20840332.389      -52896.7163        372.388          48.000  
G30  24300136.420      799643.9183      -3582.129          30.000  
G10  23791372.058      -89944.2403        261.596          38.000  
G 8  25493546.428     -387275.5863       1894.800          30.000  
G 6  21815522.765      242918.9903       -905.760          32.000  
G13  20543804.259     -333293.6553       1485.389          47.000  
G19  21968277.068     -468845.1283       2279.019          45.000  
G23  20001018.465      143969.2483       -816.284          49.000  
> 2012  9 14 12 48 22.0000000  0 14                     
G16  22079063.824      659878.0443      -3103.297          45.000  
S35  37889988.111       57595.3553       -259.749          41.000  
G20  23896881.554      696435.5273      -3227.169          26.000  
S38  36836727.642      100606.4493       -254.887          42.000  
S33  36567380.390       71950.4603       -271.865          40.000  
G 7  22497054.787     -341148.1923       1585.515          36.000  
G 3  20840260.651      -53270.3933        372.340          48.000  
G30  24300801.988      803224.1123      -3582.044          29.000  
G10  23791320.947      -90206.5553        260.709          38.000  
G 8  25493185.121     -389172.2303       1895.254          29.000  
G 6  21815690.409      243824.2143       -908.157          32.000  
G13  20543518.931     -334780.4223       1485.386          47.000  
G19  21967842.994     -471125.2903       2279.272          45.000  
G23  20001172.341      144784.0583       -816.160          49.000  
> 2012  9 14 12 48 23.0000000  0 14                     
G16  22079650.465      662979.9703      -3106.079          44.000  
S35  37890037.041       57853.9763       -261.623          41.000  
G20  23897493.010      699659.7403      -3224.387          25.000  
S38  36836776.031      100860.4783       -258.281          42.000  
S33  36567431.955       72220.7003       -276.227          40.000  
G 7  22496751.363     -342735.9103       1581.820          37.000  
G 3  20840189.192      -53643.5303        369.331          48.000  
G30  24301465.149      806804.3733      -3578.133          28.000  
G10  23791269.050      -90468.4423        258.824          39.000  
G 8  25492824.722     -391068.9953       1895.944          30.000  
G 6  21815859.834      244729.9263       -912.876          33.000  
G13  20543233.864     -336266.8843       1482.462          47.000  
G19  21967409.687     -473405.2143       2276.114          45.000  
G23  20001327.525      145599.3403       -819.630          49.000  
> 2012  9 14 12 48 26.0000000  0 13                     
S35  37890185.420       58631.0102       -258.986          41.000  
G20  23899329.680      709333.2653      -3223.751          25.000  
S38  36836920.536      101624.0952       -253.918          42.000  
S33  36567585.622       73032.6862       -269.908          40.000  
G 7  22495841.247     -347497.5422       1587.501          39.000  
G 3  20839976.841      -54757.4022        370.761          48.000  
G30  24303505.149      817546.0203      -3580.804          27.000  
G10  23791116.692      -91249.2952        259.678          39.000  
G 8  25491744.955     -396758.0293       1897.352          30.000  
G 6  21816373.900      247452.2072       -907.943          35.000  
G13  20542377.739     -340722.0292       1484.572          47.000  
G19  21966109.751     -480241.2262       2278.410          45.000  
G23  20001793.132      148050.2992       -817.497          49.000  
> 2012  9 14 12 48 33.0000000  0 14                     
G16  22085503.163      694009.2272      -3104.668          41.000  
S35  37890528.614       60437.4492       -259.476          41.000  
G20  23903642.728      731898.3573      -3227.056          30.000  
S38  36837257.832      103400.2452       -254.160          42.000  
S33  36567945.271       74923.2932       -272.156          40.000  
G 7  22493713.385     -358612.198        1585.702          42.000  
G 3  20839483.087      -57337.817         364.767          48.000  
G30  24308251.190      842603.7853      -3581.538          29.000  
G10  23790758.002      -93056.628         254.488          40.000  
G 8  25489220.711     -410040.3072       1895.072          32.000  
G 6  21817576.760      253820.8472       -913.986          39.000  
G13  20540377.228     -351106.399        1480.203          45.000  
G19  21963079.014     -496183.366        2274.210          46.000  
G23  20002882.968      153785.360        -823.025          49.000  
> 2012  9 14 12 48 34.0000000  0 14                     
G16  22086082.598      697113.5173      -3105.316          40.000  
S35  37890578.312       60696.1333       -259.877          41.000  
G20  23904263.415      735122.4743      -3225.530          31.000  
S38  36837306.186      103654.2243       -255.592          42.000  
S33  36567996.295       75193.8713       -271.849          40.000  
G 7  22493409.227     -360199.3183       1585.668          42.000  
G 3  20839413.268      -57703.1583        363.538          48.000  
G30  24308928.816      846183.9543      -3582.036          30.000  
G10  23790707.083      -93311.9773        254.941          40.000  
G 8  25488859.038     -411937.4583       1895.917          32.000  
G 6  21817748.558      254733.7223       -915.329          39.000  
G13  20540091.341     -352587.4573       1479.701          45.000  
G19  21962645.935     -498458.6623       2273.817          46.000  
G23  20003040.282      154607.6753       -824.051          49.000  
> 2012  9 14 12 48 35.0000000  0 14                     
G16  22086678.854      700217.3243      -3105.914          40.000  
S35  37890627.504       60954.3513       -260.669          41.000  
G20  23904876.773      738345.9533      -3224.281          32.000  
S38  36837354.192      103907.7603       -255.623          42.000  
S33  36568047.721       75463.8573       -272.108          40.000  
G 7  22493104.878     -361786.9793       1585.853          42.000  
G 3  20839343.555      -58068.3753        362.877          48.000  
G30  24309610.823      849763.5663      -3581.564          31.000  
G10  23790656.407      -93567.3463        252.508          40.000  
G 8  25488498.865     -413835.2303       1896.190          33.000  
G 6  21817920.216      255646.6623       -915.064          40.000  
G13  20539792.070     -354068.4403       1478.906          44.000  
G19  21962213.239     -500734.1463       2273.408          46.000  
G23  20003196.548      155430.0273       -824.288          48.000  
> 2012  9 14 12 48 37.0000000  0 14                     
G16  22087825.962      706426.6582      -3105.966          39.000  
S35  37890725.697       61471.4522       -259.681          41.000  
G20  23906107.205      744793.5343      -3225.805          33.000  
S38  36837451.128      104416.0062       -255.042          42.000  
S33  36568150.765       76004.4833       -271.023          40.000  
G 7  22492496.354     -364961.4732       1586.249          43.000  
G 3  20839205.332      -58796.0202        362.267          48.000  
G30  24310975.361      856923.4203      -3581.973          32.000  
G10  23790556.976      -94075.6172        252.154          40.000  
G 8  25487777.019     -417630.1452       1897.218          33.000  
G 6  21818265.433      257475.1432       -915.680          41.000  
G13  20539227.399     -357028.3173       1478.781          44.000  
G19  21961347.429     -505283.1753       2273.521          46.000  
G23  20003510.024      157077.3142       -825.337          48.000  
> 2012  9 14 12 48 40.0000000  0 14                     
G16  22089581.000      715741.6433      -3098.701          39.000  
S35  37890872.872       62246.9283       -252.099          41.000  
G20  23907948.273      754464.4703      -3215.893          34.000  
S38  36837596.017      105178.2763       -246.777          42.000  
S33  36568304.553       76815.2043       -264.868          40.000  
G 7  22491584.493     -369723.2623       1592.961          43.000  
G 3  20838997.744      -59882.6553        367.786          47.000  
G30  24313015.064      867662.8523      -3572.811          34.000  
G10  23790406.555      -94834.0403        258.881          40.000  
G 8  25486693.780     -423323.2673       1904.396          34.000  
G 6  21818784.508      260222.2713       -910.329          42.000  
G13  20538365.183     -361465.3683       1485.019          43.000  
G19  21960049.168     -512104.0253       2279.756          45.000  
G23  20003981.093      159552.5643       -819.964          48.000  
> 2012  9 14 12 48 41.0000000  0 14                     
G16  22090170.817      718846.3753      -3100.581          39.000  
S35  37890921.837       62504.8973       -254.611          41.000  
G20  23908561.753      757687.3853      -3219.704          34.000  
S38  36837644.598      105431.6353       -249.327          42.000  
S33  36568356.485       77084.8453       -265.982          40.000  
G 7  22491280.440     -371311.0923       1591.732          43.000  
G 3  20838928.205      -60244.1293        364.496          47.000  
G30  24313692.464      871242.0073      -3574.055          34.000  
G10  23790356.752      -95086.3513        254.870          40.000  
G 8  25486333.101     -425221.6923       1905.763          34.000  
G 6  21818957.300      261138.6113       -912.466          42.000  
G13  20538081.164     -362944.0933       1480.765          43.000  
G19  21959616.071     -514377.4743       2277.907          45.000  
G23  20004139.628      160378.2473       -822.767          47.000  
> 2012  9 14 12 48 45.0000000  0 14                     
G16  22092519.512      731267.8543      -3106.872          40.000  
S35  37891118.257       63536.9013       -259.740          41.000  
G20  23911018.604      770579.3393      -3225.551          35.000  
S38  36837836.725      106445.5703       -254.911          42.000  
S33  36568561.351       78164.6553       -271.896          40.000  
G 7  22490064.509     -377661.6203       1585.823          43.000  
G 3  20838653.434      -61682.6913        356.685          47.000  
G30  24316414.628      885558.7733      -3581.371          35.000  
G10  23790155.918      -96089.3473        247.949          40.000  
G 8  25484892.446     -432815.5603       1898.254          34.000  
G 6  21819648.311      264810.7633       -920.425          43.000  
G13  20536903.030       -1604.1673       1474.966          42.000  
G19  21957887.644     -523466.8193       2269.950          46.000  
G23  20004769.127      163687.6373       -829.988          47.000  
> 2012  9 14 12 48 49.0000000  0 14                     
G16  22094872.988      743691.5273      -3107.963          41.000  
S35  37891313.350       64567.2643       -259.893          41.000  
G20  23913474.984      783469.8673      -3224.062          36.000  
S38  36838028.608      107458.0653       -255.220          42.000  
S33  36568765.553       79242.6053       -271.957          40.000  
G 7  22488844.163     -384012.5373       1585.330          42.000  
G 3  20838382.397      -63111.1873        354.083          46.000  
G30  24319131.906      899874.4093      -3580.083          36.000  
G10  23789956.846      -97084.1653        245.727          39.000  
G 8  25483449.034     -440411.1513       1896.291          35.000  
G 6  21820342.707      268492.0373       -922.969          43.000  
G13  20535783.301       -7506.9713       1472.954          42.000  
G19  21956159.933     -532550.7103       2268.174          46.000  
G23  20005402.553      167005.9383       -832.590          46.000  
> 2012  9 14 12 48 50.0000000  0 14                     
G16  22095461.636      746798.3553      -3108.137          41.000  
S35  37891362.560       64825.2943       -258.372          41.000  
G20  23914088.638      786692.8303      -3225.108          36.000  
S38  36838077.224      107711.6493       -253.716          42.000  
S33  36568816.316       79512.6983       -270.980          40.000  
G 7  22488538.662     -385599.7573       1586.112          42.000  
G 3  20838315.493      -63466.1813        353.804          46.000  
G30  24319812.203      903453.6683      -3578.619          36.000  
G10  23789907.043      -97331.0503        245.638          39.000  
G 8  25483088.390     -442309.7383       1897.862          35.000  
G 6  21820516.686      269414.3463       -923.415          44.000  
G13  20535500.556       -8981.1553       1473.213          42.000  
G19  21955727.639     -534820.2463       2268.781          45.000  
G23  20005561.629      167837.4633       -832.289          46.000  
> 2012  9 14 12 48 51.0000000  0 14                     
G16  22096050.755      749905.3203      -3108.631          41.000  
S35  37891411.752       65083.1243       -258.851          41.000  
G20  23914703.374      789915.7463      -3224.058          37.000  
S38  36838125.596      107965.2703       -254.813          43.000  
S33  36568868.091       79782.8383       -271.059          40.000  
G 7  22488232.463     -387187.0093       1585.605          42.000  
G 3  20838248.170      -63820.5263        352.643          46.000  
G30  24320491.819      907032.8293      -3580.926          36.000  
G10  23789857.222      -97577.3773        245.110          38.000  
G 8  25482728.829     -444208.4653       1897.441          35.000  
G 6  21820691.520      270337.2443       -924.447          44.000  
G13  20535216.675      -10454.9273       1472.161          42.000  
G19  21955295.380     -537089.4423       2267.724          45.000  
G23  20005720.024      168669.5593       -833.389          45.000  
> 2012  9 14 12 48 52.0000000  0 14                     
G16  22096639.892      753011.5973      -3108.763          41.000  
S35  37891460.909       65339.9553       -259.282          41.000  
G20  23915317.081      793137.7223      -3224.233          37.000  
S38  36838173.514      108217.9863       -254.706          43.000  
S33  36568919.377       80051.9613       -271.514          40.000  
G 7  22487927.224     -388775.0973       1586.075          42.000  
G 3  20838182.103      -64175.0773        351.841          45.000  
G30  24321171.383      910611.1483      -3581.352          36.000  
G10  23789807.524      -97824.0193        243.730          38.000  
G 8  25482368.080     -446108.1293       1897.634          34.000  
G 6  21820865.900      271259.8673       -925.469          44.000  
G13  20534933.476      -11929.1003       1471.776          42.000  
G19  21954863.504     -539359.1233       2267.283          45.000  
G23  20005879.816      169501.3833       -834.108          45.000  
> 2012  9 14 12 48 53.0000000  0 14                     
G16  22097229.134      756118.0473      -3109.542          42.000  
S35  37891510.154       65596.7773       -258.625          41.000  
G20  23915931.102      796359.6603      -3225.238          37.000  
S38  36838221.869      108470.5733       -255.187          43.000  
S33  36568970.628       80320.9723       -271.058          40.000  
G 7  22487621.618     -390363.1933       1585.099          41.000  
G 3  20838114.274      -64528.9413        351.292          45.000  
G30  24321851.017      914189.4323      -3581.978          36.000  
G10  23789757.372      -98070.1233        243.203          38.000  
G 8  25482007.751     -448007.8623       1897.785          34.000  
G 6  21821040.594      272183.1383       -926.115          44.000  
G13  20534649.997      -13402.8293       1470.691          43.000  
G19  21954431.280     -541628.4223       2266.602          46.000  
G23  20006040.079      170333.8293       -834.758          45.000  
> 2012  9 14 12 48 58.0000000  0 14                     
G16  22100170.647      771654.7983      -3109.460          42.000  
S35  37891753.898       66883.1073       -258.704          41.000  
G20  23918997.087      812470.4383      -3223.004          37.000  
S38  36838462.001      109735.5323       -253.969          43.000  
S33  36569226.518       81667.8903       -270.559          40.000  
G 7  22486074.273     -398301.6142       1585.706          41.000  
G 3  20837779.893      -66286.4382        348.460          44.000  
G30  24325247.196      932082.0263      -3580.641          36.000  
G10  23789487.487      -99290.7863        241.104          36.000  
G 8  25480201.618     -457505.4223       1898.572          36.000  
G 6  21821915.530      276810.4112       -928.558          44.000  
G13  20533235.849      -20762.8672       1469.463          43.000  
G19  21952275.689     -552967.3622       2265.095          46.000  
G23  20006843.487      174506.7562       -837.803          43.000  
> 2012  9 14 12 49  2.0000000  0 14                     
G16  22102497.965      784086.7763      -3112.801          42.000  
S35  37891949.219       67912.7423       -261.668          41.000  
G20  23921446.679      825357.5703      -3224.260          36.000  
S38  36838654.512      110747.6283       -256.995          43.000  
S33  36569431.733       82744.2563       -273.603          40.000  
G 7  22484848.534     -404652.6283       1582.986          40.000  
G 3  20837519.902      -67680.9743        342.274          43.000  
G30  24327960.687      946394.7813      -3584.222          35.000  
G10  23789284.209     -100257.4523        235.162          34.000  
G 8  25478757.560     -465105.9453       1895.452          36.000  
G 6  21822612.998      280522.5963       -934.116          44.000  
G13  20532104.918      -26643.3433       1464.943          43.000  
G19  21950553.143     -562032.2153       2259.833          46.000  
G23  20007351.323      177855.1343       -843.828          42.000  
> 2012  9 14 12 49  3.0000000  0 14                     
G16  22103089.301      787196.1373      -3113.947          42.000  
S35  37891998.463       68171.1423       -262.896          41.000  
G20  23922058.850      828580.1713      -3226.435          36.000  
S38  36838702.587      111001.2893       -257.537          43.000  
S33  36569483.176       83014.3163       -274.102          40.000  
G 7  22484542.266     -406239.3873       1582.545          40.000  
G 3  20837455.127      -68026.9853        341.588          43.000  
G30  24328638.401      949973.8293      -3583.093          35.000  
G10  23789232.155     -100496.8653        236.458          34.000  
G 8  25478396.986     -467005.2333       1892.718          37.000  
G 6  21822787.378      281453.1263       -934.335          44.000  
G13  20531821.893      -28111.3933       1462.376          43.000  
G19  21950121.268     -564296.5343       2259.386          46.000  
G23  20007497.224      178694.7113       -842.366          42.000  
> 2012  9 14 12 49  5.0000000  0 14                     
G16  22104264.765      793414.2983      -3103.648          42.000  
S35  37892096.341       68686.5733       -252.916          41.000  
G20  23923284.309      835024.0913      -3218.127          36.000  
S38  36838798.319      111507.1183       -247.111          43.000  
S33  36569585.504       83553.4523       -264.985          40.000  
G 7  22483927.425     -409414.0303       1591.834          40.000  
G 3  20837329.555      -68718.1283        348.803          42.000  
G30  24329993.463      957130.7163      -3573.983          34.000  
G10  23789134.783     -100975.1773        242.484          34.000  
G 8  25477673.919     -470805.0833       1903.514          37.000  
G 6  21823137.325      283314.8903       -927.240          44.000  
G13  20531255.284      -31047.2383       1471.701          43.000  
G19  21949259.943     -568825.1183       2269.696          46.000  
G23  20007817.488      180374.5003       -836.118          41.000  
> 2012  9 14 12 49  6.0000000  0 14                     
G16  22104855.123      796523.0823      -3105.052          42.000  
S35  37892145.115       68943.5603       -251.511          42.000  
G20  23923896.655      838245.4233      -3217.684          36.000  
S38  36838846.360      111759.4263       -247.943          43.000  
S33  36569636.720       83822.3463       -263.973          40.000  
G 7  22483624.943     -411001.8803       1592.021          40.000  
G 3  20837146.887      -69063.5063        345.415          42.000  
G30  24330669.868      960708.5593      -3572.056          34.000  
G10  23789086.202     -101214.0273        245.762          34.000  
G 8  25477312.386     -472705.7403       1907.562          37.000  
G 6  21823311.914      284246.1083       -926.862          44.000  
G13  20530958.281      -32515.1033       1467.960          43.000  
G19  21948828.695     -571089.4223       2268.854          46.000  
G23  20007972.830      181214.7253       -835.884          41.000  
> 2012  9 14 12 49  7.0000000  0 14                     
G16  22105444.749      799633.0653      -3103.694          42.000  
S35  37892194.167       69201.4803       -251.910          42.000  
G20  23924508.948      841467.7433      -3216.871          36.000  
S38  36838895.185      112012.6803       -248.208          43.000  
S33  36569688.303       84092.2033       -263.883          40.000  
G 7  22483322.670     -412588.6613       1592.379          40.000  
G 3  20837080.750      -69406.7843        349.328          42.000  
G30  24331589.879      964287.4643      -3578.088          34.000  
G10  23789038.144     -101451.3093        244.908          34.000  
G 8  25476951.533     -474605.3853       1905.197          37.000  
G 6  21823486.992      285178.9963       -926.742          43.000  
G13  20530681.783      -33981.5143       1467.794          43.000  
G19  21948398.268     -573352.2973       2268.393          46.000  
G23  20008128.469      182056.5973       -836.117          41.000  
> 2012  9 14 12 49  9.0000000  0 14                     
G16  22106622.115      805851.8043      -3111.157          42.000  
S35  37892291.644       69715.4763       -258.943          42.000  
G20  23925731.929      847910.4653      -3223.743          36.000  
S38  36838991.127      112517.3683       -254.333          43.000  
S33  36569790.317       84630.1153       -270.578          40.000  
G 7  22482711.389     -415763.9733       1585.584          40.000  
G 3  20836944.569      -70093.3973        341.425          41.000  
G30  24332945.377        2855.9683      -3578.477          33.000  
G10  23788941.871     -101925.9923        236.254          34.000  
G 8  25476227.506     -478406.6393       1899.057          37.000  
G 6  21823837.462      287044.8343       -934.902          43.000  
G13  20530111.667      -36914.4153       1463.950          43.000  
G19  21947536.646     -577878.6443       2261.182          46.000  
G23  20008444.056      183740.3633       -844.612          40.000  
> 2012  9 14 12 49 10.0000000  0 14                     
G16  22107211.566      808960.5923      -3111.025          42.000  
S35  37892340.522       69971.4733       -258.697          42.000  
G20  23926343.873      851130.9153      -3221.895          36.000  
S38  36839038.417      112768.9993       -253.344          43.000  
S33  36569840.818       84898.1883       -270.527          41.000  
G 7  22482409.500     -417352.4303       1585.769          40.000  
G 3  20836875.256      -70436.5613        340.325          41.000  
G10  23788893.063     -102163.3453        235.694          35.000  
G 8  25475866.024     -480308.2573       1898.837          37.000  
G 6  21824013.064      287977.8103       -935.911          43.000  
G13  20529827.106      -38381.0883       1464.015          43.000  
G11  25828993.935     -344327.2113       1738.443          30.000  
G19  21947106.725     -580142.0883       2261.163          46.000  
G23  20008600.898      184582.3003       -844.788          40.000  
> 2012  9 14 12 49 11.0000000  0 15                     
G16  22107800.912      812070.7623      -3112.017          42.000  
S35  37892389.261       70228.5403       -258.767          42.000  
G20  23926955.853      854352.5053      -3224.262          35.000  
S38  36839086.928      113021.8323       -254.594          43.000  
S33  36569892.680       85167.5233       -270.316          41.000  
G 7  22482104.924     -418939.6642       1585.209          40.000  
G 3  20836808.806      -70777.8123        339.031          41.000  
G30  24334016.680        2834.3553      -3579.986          34.000  
G10  23788846.663     -102398.9343        232.517          35.000  
G 8  25475504.857     -482208.6853       1900.251          37.000  
G 6  21824189.172      288912.6343       -936.233          43.000  
G13  20529547.326      -39846.1013       1462.951          43.000  
G11  25828662.992     -346067.1453       1739.830          30.000  
G19  21946676.403     -582403.9263       2260.246          46.000  
G23  20008759.032      185426.0653       -845.156          40.000  
> 2012  9 14 12 49 19.0000000  0 16                     
G32  25196235.795      934212.1083      -3284.305          30.000  
G16  22112513.518      836956.5273      -3113.291          42.000  
S35  37892779.832       72283.3453       -259.177          42.000  
G20  23931854.460      880121.6733      -3220.570          35.000  
S38  36839471.270      115042.2023       -254.695          43.000  
S33  36570301.294       87320.3383       -271.392          41.000  
G 7  22479660.742     -431638.9193       1585.127          41.000  
G 3  20836269.210      -73485.7553        333.911          39.000  
G30  24339455.093       17176.6103      -3581.134          34.000  
G10  23788476.107     -104265.6083        228.842          36.000  
G 8  25472610.424     -497416.7043       1899.015          37.000  
G 6  21825592.396      296411.1523       -942.481          41.000  
G13  20527297.610      -51551.7713       1459.555          43.000  
G11  25826012.252     -360003.5813       1742.803          30.000  
G19  21943229.776     -600486.8383       2257.082          45.000  
G23  20010024.696      192195.7473       -850.082          40.000  
> 2012  9 14 12 49 21.0000000  0 16                     
G32  25197486.191      940775.2413      -3283.358          30.000  
G16  22113690.709      843180.2343      -3114.271          42.000  
S35  37892877.832       72797.8323       -258.803          42.000  
G20  23933080.739      886563.9383      -3223.861          35.000  
S38  36839566.548      115548.1063       -255.198          43.000  
S33  36570403.989       87858.6393       -269.800          41.000  
G 7  22479048.152     -434813.0583       1585.644          41.000  
G 3  20836136.484      -74155.5213        332.968          39.000  
G30  24340812.162       24332.2233      -3580.636          34.000  
G10  23788384.180     -104726.1863        229.298          36.000  
G 8  25471887.863     -501218.8853       1899.715          36.000  
G 6  21825926.934      298292.1743       -942.630          41.000  
G13  20526737.318      -54473.1103       1459.008          44.000  
G11  25825349.265     -363490.7003       1741.273          31.000  
G19  21942368.817     -605003.1833       2256.013          45.000  
G23  20010343.756      193894.6723       -852.141          41.000  
> 2012  9 14 12 49 22.0000000  0 16                     
G32  25198111.746      944055.6783      -3283.326          30.000  
G16  22114279.183      846291.5553      -3113.077          42.000  
S35  37892926.396       73054.1913       -258.770          42.000  
G20  23933693.766      889784.2363      -3223.079          35.000  
S38  36839614.274      115800.1033       -253.497          43.000  
S33  36570454.891       88127.0293       -271.052          41.000  
G 7  22479077.608     -436400.5703       1585.870          41.000  
G 3  20836069.667      -74490.1693        332.569          39.000  
G30  24341492.895       27909.1933      -3578.483          34.000  
G10  23788338.966     -104956.5253        228.029          36.000  
G 8  25471525.353     -503120.8943       1899.421          36.000  
G 6  21826095.590      299233.1133       -944.026          41.000  
G13  20526456.579      -55933.8933       1459.157          44.000  
G11  25825018.148     -365235.5743       1743.238          31.000  
G19  21941938.913     -607261.5573       2256.230          45.000  
G23  20010503.199      194744.2513       -851.844          41.000  
> 2012  9 14 12 49 23.0000000  0 16                     
G32  25198737.197      947337.3233      -3282.499          31.000  
G16  22114866.994      849404.3383      -3113.567          42.000  
S35  37892975.850       73311.8353       -258.598          42.000  
G20  23934307.298      893005.7263      -3223.250          35.000  
S38  36839662.629      116053.2963       -254.209          43.000  
S33  36570506.108       88396.6883       -270.087          41.000  
G 7  22478775.894     -437987.1033       1585.505          41.000  
G 3  20836003.077      -74822.9133        331.312          39.000  
G30  24342172.092       31487.2763      -3578.167          34.000  
G10  23788293.822     -105184.9763        227.176          37.000  
G 8  25471163.627     -505021.6933       1899.928          36.000  
G 6  21826279.673      300175.7633       -943.661          41.000  
G13  20526175.578      -57392.9693       1457.499          44.000  
G11  25824685.285     -366979.4393       1742.484          31.000  
G19  21941508.591     -609518.2973       2255.435          45.000  
G23  20010662.711      195595.6953       -852.916          41.000  
> 2012  9 14 12 49 28.0000000  0 15                     
G32  25201856.074      963741.9073      -3282.334          32.000  
G16  22118218.256      864970.0282      -3115.084          42.000  
S35  37893220.799       74599.3623       -259.252          42.000  
G20  23937377.367      909111.6022      -3222.418          35.000  
S38  36839903.145      117317.5912       -254.317          43.000  
S33  36570761.875       89743.1372       -271.094          41.000  
G 7  22477264.181     -445920.5882       1584.362          41.000  
G 3  20835673.163      -76477.3623        326.996          39.000  
G30  24345563.367       49376.9753      -3578.951          34.000  
G10  23788069.639     -106319.8153        223.419          37.000  
G 8  25469356.779     -514528.7343       1899.229          33.000  
G 6  21827162.863      304897.2372       -947.511          41.000  
G13  20524774.971      -64682.2862       1455.066          44.000  
G19  21939362.319     -620796.9712       2253.144          44.000  
G23  20011464.671      199861.0313       -856.053          42.000  
> 2012  9 14 12 49 32.0000000  0 14                     
G16  22120591.049      877426.1772      -3116.491          42.000  
S35  37893416.224       75628.6562       -258.114          42.000  
G20  23939828.861      921995.7973      -3223.258          35.000  
S38  36840095.010      118329.3283       -255.101          43.000  
S33  36570966.514       90820.9302       -270.542          41.000  
G 7  22476057.150     -452266.5082       1584.686          41.000  
G 3  20835417.081      -77788.3843        324.302          40.000  
G30  24348274.328       63688.3883      -3578.866          33.000  
G10  23787889.640     -107217.2623        221.560          37.000  
G 8  25467912.896     -522134.7072       1899.678          35.000  
G 6  21827878.392      308685.8332       -950.508          41.000  
G13  20523654.859      -70505.1162       1452.800          43.000  
G19  21937651.744     -629812.4833       2251.361          44.000  
G23  20012110.312      203284.5522       -858.574          42.000  
> 2012  9 14 12 49 34.0000000  0 14                     
G16  22121777.297      883655.8713      -3115.914          42.000  
S35  37893514.137       76143.3493       -258.455          42.000  
G20  23941055.454      928438.1903      -3223.169          35.000  
S38  36840191.353      118835.4083       -253.656          43.000  
S33  36571069.523       91360.2163       -271.188          41.000  
G 7  22475453.965     -455438.7973       1585.042          41.000  
G 3  20835289.189      -78439.2593        323.675          40.000  
G30  24349628.500       70844.4533      -3578.298          33.000  
G10  23787801.011     -107662.0903        220.243          37.000  
G 8  25467188.398     -525937.3513       1898.638          35.000  
G 6  21828237.029      310584.4313       -950.884          41.000  
G13  20523094.794      -73413.1893       1452.032          43.000  
G19  21936794.327     -634317.3183       2251.198          44.000  
G23  20012435.025      205000.5003       -859.435          43.000  
> 2012  9 14 12 49 35.0000000  0 14                     
G16  22122369.994      886770.2813      -3116.748          42.000  
S35  37893562.561       76400.0063       -258.380          42.000  
G20  23941667.625      931658.5833      -3223.489          35.000  
S38  36840238.852      119087.6573       -254.460          43.000  
S33  36571121.018       91629.2313       -271.226          41.000  
G 7  22475152.461     -457025.6073       1585.000          41.000  
G 3  20835225.618      -78764.3983        323.111          40.000  
G30  24350305.307       74421.6883      -3579.520          33.000  
G10  23787757.001     -107884.3763        220.301          37.000  
G 8  25466825.171     -527839.4763       1899.526          35.000  
G 6  21828415.859      311533.9303       -951.280          41.000  
G13  20522814.509      -74867.2493       1451.882          44.000  
G19  21936365.383     -636569.8683       2250.202          44.000  
G23  20012597.295      205858.6693       -860.279          43.000  
> 2012  9 14 12 49 38.0000000  0 14                     
G16  22124150.440      896116.2863      -3117.587          42.000  
S35  37893708.951       77171.4863       -259.097          42.000  
G20  23943504.801      941321.2603      -3223.378          35.000  
S38  36840383.427      119846.5543       -254.591          43.000  
S33  36571273.324       92438.4243       -271.365          41.000  
G 7  22474247.981     -461784.2143       1585.137          41.000  
G 3  20835036.527      -79734.0453        320.013          41.000  
G30  24352336.128       85155.0063      -3579.368          33.000  
G10  23787624.083     -108546.1583        218.307          37.000  
G 8  25465739.454     -533544.5343       1900.291          35.000  
G 6  21828954.093      314387.8213       -953.684          41.000  
G13  20521976.776      -79224.9663       1450.375          44.000  
G19  21935078.884     -643323.4323       2249.075          43.000  
G23  20013087.262      208438.5033       -862.104          43.000  
> 2012  9 14 12 49 39.0000000  0 14                     
G16  22124743.642      899231.7803      -3117.200          42.000  
S35  37893758.352       77428.5113       -258.862          42.000  
G20  23944116.955      944541.8443      -3222.668          34.000  
S38  36840431.363      120099.3893       -254.958          43.000  
S33  36571324.785       92707.8903       -270.850          41.000  
G 7  22473946.406     -463370.5593       1584.284          40.000  
G 3  20834974.509      -80056.0853        319.265          41.000  
G30  24353013.843       88732.5193      -3580.186          33.000  
G10  23787580.318     -108765.8303        217.757          37.000  
G 8  25465377.815     -535446.5833       1899.942          35.000  
G 6  21829133.062      315340.1583       -954.069          41.000  
G13  20521697.416      -80676.8043       1449.649          44.000  
G19  21934650.236     -645574.0463       2248.130          43.000  
G23  20013249.811      209299.4693       -862.926          43.000  
> 2012  9 14 12 49 40.0000000  0 14                     
G16  22125337.316      902348.3513      -3117.914          42.000  
S35  37893806.602       77686.4913       -259.132          42.000  
G20  23944728.882      947763.3103      -3222.569          34.000  
S38  36840479.578      120353.0553       -254.567          43.000  
S33  36571375.949       92978.1403       -271.427          41.000  
G 7  22473644.832     -464956.0093       1583.971          40.000  
G 3  20834913.677      -80376.5603        318.758          41.000  
G30  24353691.295       92310.9163      -3579.347          34.000  
G10  23787536.082     -108984.0533        216.908          37.000  
G 8  25465015.793     -537347.7693       1901.120          35.000  
G 6  21829311.910      316294.0353       -955.098          41.000  
G13  20521418.596      -82127.2833       1449.075          44.000  
G19  21934221.362     -647823.3283       2247.684          43.000  
G23  20013413.075      210161.9243       -863.570          43.000  
> 2012  9 14 12 49 41.0000000  0 14                     
G16  22125930.851      905465.0673      -3118.472          42.000  
S35  37893856.126       77944.5053       -259.550          42.000  
G20  23945341.629      950984.6863      -3222.782          34.000  
S38  36840528.299      120606.5753       -254.518          43.000  
S33  36571427.828       93248.3653       -271.855          41.000  
G 7  22473342.908     -466541.4513       1584.003          40.000  
G 3  20834852.078      -80696.3923        318.164          41.000  
G30  24354369.567       95889.1923      -3578.528          34.000  
G10  23787492.055     -109201.7373        214.140          37.000  
G 8  25464654.242     -539249.0463       1897.049          35.000  
G 6  21829491.438      317248.4713       -956.278          41.000  
G13  20521140.091      -83577.3233       1448.572          44.000  
G19  21933792.192     -650072.2733       2248.073          43.000  
G23  20013576.392      211024.9703       -864.599          43.000  
> 2012  9 14 12 49 43.0000000  0 14                     
G16  22127117.238      911696.9773      -3119.854          42.000  
S35  37893953.987       78458.6493       -260.862          42.000  
G20  23946566.529      957425.1293      -3225.348          34.000  
S38  36840624.694      121111.4303       -256.214          43.000  
S33  36571530.104       93787.0763       -272.894          41.000  
G 7  22472740.282     -469714.3523       1581.754          40.000  
G 3  20834729.159      -81336.0653        316.249          41.000  
G30  24355726.427      103043.6433      -3580.550          35.000  
G10  23787403.861     -109637.4903        214.447          37.000  
G 8  25463931.192     -543053.8733       1899.736          35.000  
G 6  21829850.563      319157.1583       -958.901          41.000  
G13  20520583.167      -86478.0923       1446.699          44.000  
G19  21932934.496     -654571.0383       2244.226          43.000  
G23  20013904.770      212750.7873       -867.615          43.000  
> 2012  9 14 12 49 45.0000000  0 14                     
G16  22128303.923      917932.2332      -3118.457          42.000  
S35  37894051.848       78975.2942       -259.029          42.000  
G20  23947792.791      963868.1513      -3221.971          35.000  
S38  36840720.653      121619.1623       -255.318          43.000  
S33  36571632.955       94328.0862       -270.528          41.000  
G 7  22472136.766     -472884.5072       1583.678          40.000  
G 3  20834606.484      -81970.4223        315.120          41.000  
G30  24357083.268      110200.6103      -3578.771          35.000  
G10  23787316.296     -110068.3383        214.439          37.000  
G 8  25463207.863     -546856.2723       1900.733          34.000  
G 6  21830213.231      321070.9442       -958.422          41.000  
G13  20520027.482      -89374.3613       1446.115          44.000  
G19  21932077.341     -659065.5793       2246.024          43.000  
G23  20014233.689      214481.6642       -867.047          44.000  
> 2012  9 14 12 49 46.0000000  0 14                     
G16  22128897.353      921051.3292      -3119.208          42.000  
S35  37894100.988       79234.9102       -258.696          42.000  
G20  23948406.131      967090.7812      -3221.343          35.000  
S38  36840769.077      121874.2242       -254.951          43.000  
S33  36571684.800       94599.5982       -271.063          41.000  
G 7  22471835.349     -474468.3342       1584.163          40.000  
G 3  20834546.054      -82285.3522        315.144          41.000  
G30  24357761.349      113780.2602      -3577.857          35.000  
G10  23787272.583     -110281.7442        213.711          37.000  
G 8  25462847.045     -548756.4592       1900.609          34.000  
G 6  21830394.260      322029.9932       -958.970          41.000  
G13  20519748.872      -90820.5872       1446.486          44.000  
G19  21931648.136     -661311.0392       2245.485          43.000  
G23  20014399.152      215349.2242       -867.483          44.000  
> 2012  9 14 12 49 50.0000000  0 14                     
G16  22131271.804      933529.7962      -3120.933          42.000  
S35  37894299.100       80273.4422       -260.476          42.000  
G20  23950859.300      979981.1702      -3223.842          35.000  
S38  36840963.263      122894.4562       -256.156          43.000  
S33  36571890.905       95686.2112       -273.054          41.000  
G 7  22470627.514     -480803.1922       1582.999          40.000  
G 3  20834303.304      -83538.0762        310.799          42.000  
G30  24360476.585      128098.7892      -3580.377          34.000  
G10  23787101.711     -111129.4052        209.896          37.000  
G 8  25461400.143     -556357.2452       1896.858          33.000  
G 6  21831121.497      325872.5612       -962.608          41.000  
G13  20518639.754      -96600.5522       1443.285          43.000  
G19  21929938.643     -670288.6322       2242.540          43.000  
G23  20015059.067      218825.8132       -871.261          44.000  
> 2012  9 14 12 49 52.0000000  0 14                     
G16  22132458.785      939770.7912      -3121.903          42.000  
S35  37894397.310       80792.7912       -261.247          42.000  
G20  23952085.492      986426.7392      -3223.073          34.000  
S38  36841060.356      123405.0962       -256.693          43.000  
S33  36571993.896       96230.1682       -274.413          41.000  
G 7  22470024.644     -483969.7902       1581.250          40.000  
G 3  20834185.323      -84159.6682        308.058          42.000  
G30  24361834.753      135258.5063      -3582.322          34.000  
G10  23787018.805     -111549.1852        207.751          37.000  
G 8  25460677.268     -560157.3543       1896.556          33.000  
G 6  21831486.905      327798.2512       -965.002          41.000  
G13  20518087.140      -99487.0572       1441.272          43.000  
G19  21929083.914     -674774.3832       2240.132          42.000  
G23  20015389.190      220568.4402       -873.437          44.000  
> 2012  9 14 12 49 53.0000000  0 14                     
G16  22133052.476      942891.5702      -3119.674          42.000  
S35  37894447.043       81052.4382       -258.876          42.000  
G20  23952698.676      989649.4832      -3221.800          34.000  
S38  36841108.606      123660.5312       -254.412          43.000  
S33  36572045.758       96501.9662       -270.447          41.000  
G 7  22469723.035     -485553.0422       1583.934          40.000  
G 3  20834126.411      -84469.4292        310.595          42.000  
G30  24362514.858      138838.3392      -3579.400          34.000  
G10  23786978.024     -111758.2142        209.279          37.000  
G 8  25460315.874     -562057.4942       1899.602          33.000  
G 6  21831669.678      328762.0272       -963.803          41.000  
G13  20517810.380     -100929.6082       1442.590          43.000  
G19  21928656.296     -677016.6202       2242.784          42.000  
G23  20015556.258      221440.6652       -871.635          44.000  
> 2012  9 14 12 49 55.0000000  0 14                     
G16  22134239.109      949134.371       -3121.918          42.000  
S35  37894545.846       81572.3682       -259.957          42.000  
G20  23953925.356      996095.5202      -3223.092          34.000  
S38  36841205.961      124171.9842       -255.636          43.000  
S33  36572149.028       97046.4272       -273.208          41.000  
G 7  22469120.130     -488719.279        1582.715          40.000  
G 3  20834009.966      -85086.224         307.690          43.000  
G30  24363874.422      145998.6462      -3579.855          34.000  
G10  23786897.194     -112173.9602        206.300          37.000  
G 8  25459594.674     -565857.2792       1899.508          33.000  
G 6  21832034.580      330691.614        -965.936          41.000  
G13  20517258.325     -103813.107        1441.111          43.000  
G19  21927801.724     -681499.293        2239.994          42.000  
G23  20015887.865      223187.661        -874.399          44.000  
> 2012  9 14 12 49 57.0000000  0 14                     
G16  22135426.753      955376.463       -3120.576          42.000  
S35  37894644.405       82090.7372       -258.412          42.000  
G20  23955151.810     1002539.9682      -3222.187          34.000  
S38  36841302.687      124681.9152       -254.430          43.000  
S33  36572252.805       97590.2302       -271.094          41.000  
G 7  22468516.928     -491886.351        1583.794          39.000  
G 3  20833893.433      -85701.726         307.818          43.000  
G30  24365234.405      153157.4092      -3578.783          34.000  
G10  23786817.429     -112588.8142        207.371          37.000  
G 8  25458871.728     -569658.9833       1901.398          33.000  
G 6  21832399.569      332622.794        -965.077          41.000  
G13  20516706.130     -106695.661        1441.030          43.000  
G19  21926947.326     -685981.729        2241.332          42.000  
G23  20016219.768      224935.647        -873.860          44.000  
> 2012  9 14 12 49 58.0000000  0 14                     
G16  22136020.723      958498.179       -3122.969          42.000  
S35  37894693.667       82350.2812       -260.564          42.000  
G20  23955765.516     1005762.5312      -3222.806          34.000  
S38  36841350.850      124937.2372       -257.030          43.000  
S33  36572305.103       97862.4522       -273.089          41.000  
G 7  22468215.301     -493469.449        1581.929          39.000  
G 3  20833834.399      -86008.049         304.979          43.000  
G30  24365914.160      156737.1682      -3581.452          33.000  
G10  23786776.980     -112795.0112        205.200          37.000  
G 8  25458511.416     -571559.3233       1902.085          33.000  
G 6  21832583.320      333589.704        -968.291          41.000  
G13  20516430.818     -108135.828        1438.928          43.000  
G19  21926520.965     -688221.945        2239.015          42.000  
G23  20016385.510      225810.973        -876.642          44.000  
> 2012  9 14 12 49 59.0000000  0 14                     
G16  22136614.659      961620.580       -3121.512          42.000  
S35  37894742.772       82610.2792       -258.781          42.000  
G20  23956378.438     1008985.5232      -3222.512          34.000  
S38  36841399.885      125193.0582       -255.212          43.000  
S33  36572356.616       98135.0602       -271.304          41.000  
G 7  22467913.220     -495052.029        1584.238          39.000  
G 3  20833776.325      -86313.190         306.168          43.000  
G30  24366594.317      160317.3152      -3579.227          33.000  
G10  23786736.443     -113000.1202        206.450          37.000  
G 8  25458150.389     -573459.7393       1897.967          32.000  
G 6  21832767.280      334557.753        -967.365          41.000  
G13  20516155.628     -109575.033        1440.404          43.000  
G19  21926094.779     -690461.281        2240.509          42.000  
G23  20016552.561      226687.381        -875.521          44.000  
> 2012  9 14 12 50  4.0000000  0 15                     
G16  22139585.803      977233.871       -3123.418          42.000  
S35  37894989.500       83909.7392       -259.631          42.000  
G20  23959443.883     1025098.4852      -3223.072          35.000  
S38  36841642.373      126470.1812       -255.576          43.000  
S33  36572615.769       99495.6572       -272.267          41.000  
G 7  22466406.254     -502965.840        1582.761          39.000  
G 3  20833485.203      -87830.075         301.427          43.000  
G30  24369992.119      178216.5302      -3581.584          32.000  
G10  23786536.306     -114018.654         202.108          37.000  
G 8  25456343.105     -582961.8773       1901.327          32.000  
G 6  21833685.248      339405.813        -971.578          41.000  
G13  20514781.877     -116765.395        1437.364          43.000  
G11  25811032.199     -438717.8713       1754.055          29.000  
G19  21923965.206     -701653.274        2237.192          42.000  
G23  20017387.851      231077.270        -879.505          45.000  
> 2012  9 14 12 50  5.0000000  0 15                     
G16  22140180.297      980356.850       -3123.869          42.000  
S35  37895039.408       84169.5692       -259.989          42.000  
G20  23960056.961     1028320.6902      -3223.974          35.000  
S38  36841691.024      126725.3912       -255.592          43.000  
S33  36572666.898       99767.4652       -272.579          41.000  
G 7  22466104.366     -504548.756        1582.679          39.000  
G 3  20833427.093      -88131.625         300.910          43.000  
G30  24370671.334      181796.0472      -3579.572          33.000  
G10  23786497.741     -114220.941         201.029          37.000  
G 8  25455981.327     -584862.8003       1901.450          32.000  
G 6  21833869.296      340377.077        -972.284          41.000  
G13  20514507.717     -118202.298        1435.614          43.000  
G11  25810696.475     -440473.1893       1754.947          30.000  
G19  21923539.456     -703890.699        2236.372          42.000  
G23  20017554.605      231956.852        -880.287          45.000  
> 2012  9 14 12 50  7.0000000  0 15                     
G16  22141368.744      986603.841       -3123.948          42.000  
S35  37895138.002       84689.7402       -260.023          42.000  
G20  23961282.996     1034765.544       -3224.309          35.000  
S38  36841787.891      127236.2922       -255.771          43.000  
S33  36572769.924      100311.7212       -272.177          41.000  
G 7  22465502.490     -507714.017        1582.506          40.000  
G 3  20833313.021      -88732.169         299.111          43.000  
G30  24372030.811      188955.4662      -3580.846          33.000  
G10  23786419.931     -114623.240         200.606          37.000  
G 8  25455258.451     -588664.2142       1899.935          32.000  
G 6  21834238.246      342321.934        -973.515          41.000  
G13  20513959.204     -121074.169        1435.291          44.000  
G11  25810025.636     -443984.1123       1755.895          31.000  
G19  21922687.955     -708363.868        2236.004          42.000  
G23  20017888.812      233718.347        -880.893          44.000  
> 2012  9 14 12 50  8.0000000  0 14                     
G16  22141962.645      989727.298       -3124.377          42.000  
S35  37895187.735       84949.4872       -261.087          42.000  
G20  23961896.301     1037987.615       -3222.460          35.000  
S38  36841836.175      127491.4582       -256.133          43.000  
S33  36572821.420      100583.6732       -272.233          41.000  
G 7  22465201.387     -509296.919        1581.754          40.000  
G 3  20833256.605      -89031.721         298.977          43.000  
G30  24372711.456      192534.8483      -3580.810          33.000  
G10  23786380.860     -114823.853         199.255          37.000  
G 8  25454896.586     -590565.3162       1900.031          32.000  
G 6  21834422.782      343294.997        -974.520          41.000  
G13  20513686.160     -122509.695        1434.581          44.000  
G19  21922261.768     -710600.132        2236.158          42.000  
G23  20018056.334      234599.717        -882.474          44.000  
> 2012  9 14 12 50 10.0000000  0 14                     
G16  22143150.394      995974.597       -3123.930          42.000  
S35  37895286.520       85468.7262       -259.402          42.000  
G20  23963121.778     1044431.406       -3219.715          35.000  
S38  36841933.391      128001.3282       -254.714          43.000  
S33  36572925.790      101127.4122       -271.495          41.000  
G 7  22464599.668     -512462.797        1583.326          40.000  
G 3  20833142.306      -89628.956         298.065          43.000  
G30  24374071.352      199693.3542      -3579.237          33.000  
G10  23786304.428     -115223.538         199.665          36.000  
G 8  25454173.222     -594367.8982       1902.163          32.000  
G 6  21834792.360      345242.813        -974.331          41.000  
G13  20513140.510     -125379.516        1435.032          44.000  
G19  21921411.489     -715071.679        2235.760          42.000  
G23  20018391.570      236364.101        -882.009          44.000  
> 2012  9 14 12 50 11.0000000  0 15                     
G16  22143744.417      999098.642       -3125.192          42.000  
S35  37895335.241       85728.5952       -260.789          42.000  
G20  23963735.205     1047653.339       -3223.662          35.000  
S38  36841982.164      128256.3502       -255.348          43.000  
S33  36572977.477      101399.2272       -272.733          41.000  
G 7  22464298.512     -514045.584        1581.861          40.000  
G 3  20833084.511      -89926.419         296.286          43.000  
G30  24374751.910      203272.6663      -3580.221          33.000  
G10  23786265.269     -115422.4063        198.233          36.000  
G 8  25453812.841     -596269.0962       1902.199          32.000  
G 6  21834977.769      346217.776        -976.101          41.000  
G13  20512867.553     -126813.600        1432.857          44.000  
G11  25808689.368     -451011.6113       1756.405          31.000  
G19  21920986.140     -717306.7153       2233.518          42.000  
G23  20018559.144      237247.336        -884.605          44.000  
> 2012  9 14 12 50 15.0000000  0 15                     
G16  22146121.922     1011597.4043      -3124.128          41.000  
S35  37895532.499       86768.0313       -258.447          42.000  
G20  23966187.345     1060541.4923      -3220.788          35.000  
S38  36842175.966      129277.8973       -253.623          43.000  
S33  36573184.053      102487.0023       -271.413          41.000  
G 7  22463093.226     -520375.1213       1582.863          40.000  
G 3  20832857.832      -91108.6673        295.111          43.000  
G30  24377477.774      217590.3983      -3578.174          34.000  
G10  23786112.877     -116211.4883        198.183          36.000  
G 8  25452364.368     -603874.0573       1901.273          32.000  
G 6  21835720.921      350125.1223       -977.273          41.000  
G13  20511775.850     -132544.0163       1432.480          44.000  
G11  25807351.791     -458043.2773       1758.973          32.000  
G19  21919283.836     -726242.0232       2233.865          42.000  
G23  20019232.880      240787.1223       -885.608          44.000  
> 2012  9 14 12 50 16.0000000  0 15                     
G16  22146716.381     1014723.2822      -3125.021          41.000  
S35  37895582.197       87028.3482       -258.861          42.000  
G20  23966799.847     1063764.1502      -3220.359          35.000  
S38  36842224.495      129533.8302       -253.738          43.000  
S33  36573236.159      102759.9742       -271.282          41.000  
G 7  22462792.035     -521956.8422       1582.938          40.000  
G 3  20832802.271      -91401.7772        293.904          43.000  
G30  24378159.414      221170.4753      -3578.180          34.000  
G10  23786075.917     -116406.6362        195.966          36.000  
G 8  25452002.223     -605774.6522       1902.177          31.000  
G 6  21835906.382      351104.1172       -978.473          41.000  
G13  20511502.301     -133974.8502       1432.047          44.000  
G11  25807017.218     -459801.3302       1759.784          32.000  
G19  21918859.953     -728474.1072       2234.750          42.000  
G23  20019401.798      241674.3252       -885.939          45.000  
> 2012  9 14 12 50 17.0000000  0 16                     
G32  25232418.647     1124367.7242      -3276.842          33.000  
G16  22147311.206     1017849.4602      -3125.632          41.000  
S35  37895631.616       87288.6962       -259.890          42.000  
G20  23967413.467     1066986.8752      -3221.310          35.000  
S38  36842273.757      129789.9022       -255.527          43.000  
S33  36573287.777      103033.0732       -272.983          41.000  
G 7  22462490.897     -523538.4022       1582.084          40.000  
G 3  20832746.692      -91694.0912        292.665          43.000  
G30  24378841.421      224750.7102      -3580.938          34.000  
G10  23786038.905     -116601.0982        194.446          36.000  
G 8  25451640.847     -607675.2612       1902.526          31.000  
G 6  21836092.576      352083.8542       -979.586          41.000  
G13  20511229.501     -135405.0812       1430.724          44.000  
G11  25806683.186     -461559.5582       1755.835          31.000  
G19  21918435.703     -730705.6972       2232.040          42.000  
G23  20019570.157      242562.2582       -887.483          45.000  
> 2012  9 14 12 50 19.0000000  0 16                     
G32  25233665.692     1130917.7203      -3276.906          33.000  
G16  22148500.247     1024101.3753      -3127.408          41.000  
S35  37895730.524       87808.3163       -261.478          42.000  
G20  23968639.973     1073431.2143      -3225.125          35.000  
S38  36842370.885      130301.3513       -256.551          43.000  
S33  36573391.362      103578.4083       -273.109          41.000  
G 7  22461888.166     -526702.4233       1580.994          40.000  
G 3  20832634.923      -92277.6213        290.575          43.000  
G30  24380204.667      231910.0473      -3579.484          34.000  
G10  23785965.824     -116989.2353        191.860          36.000  
G 8  25450918.111     -611477.5953       1900.302          31.000  
G 6  21836464.143      354044.2213       -982.197          41.000  
G13  20510684.880     -138265.0973       1428.493          44.000  
G11  25806013.342     -465077.9143       1764.517          32.000  
G19  21917585.773     -735168.5783       2229.650          42.000  
G23  20019908.151      244338.9993       -890.043          45.000  
> 2012  9 14 12 50 21.0000000  0 16                     
G32  25234913.627     1137468.5272      -3276.016          33.000  
G16  22149689.723     1030355.6072      -3127.764          41.000  
S35  37895829.083       88329.6582       -261.167          42.000  
G20  23969866.898     1079876.9502      -3224.651          35.000  
S38  36842468.571      130814.4462       -257.366          43.000  
S33  36573495.400      104125.1782       -274.549          41.000  
G 7  22461285.889     -529864.7432       1580.648          40.000  
G 3  20832523.469      -92856.8512        288.111          43.000  
G30  24381567.128      239070.7952      -3581.705          34.000  
G10  23785894.348     -117373.5572        191.545          37.000  
G 8  25450195.934     -615278.5343       1900.200          32.000  
G 6  21836837.421      356008.6682       -983.829          41.000  
G13  20510142.335     -141121.6332       1427.069          43.000  
G11  25805344.161     -468596.0483       1759.242          32.000  
G19  21916738.949     -739628.2762       2228.628          42.000  
G23  20020246.231      246119.7572       -891.172          45.000  
> 2012  9 14 12 50 26.0000000  0 16                     
G32  25238029.241     1153841.8893      -3276.434          32.000  
G16  22152151.740        9610.6612      -3129.248          40.000  
S35  37896077.643       89633.3692       -261.656          42.000  
G20  23972933.163     1095989.9502      -3223.970          35.000  
S38  36842712.368      132095.7082       -256.844          43.000  
S33  36573754.239      105491.3682       -274.587          41.000  
G 7  22459350.172       -2895.4413       1580.616          40.000  
G 3  20832251.385      -94293.5712        284.886          43.000  
G30  24384972.049      256971.5962      -3581.265          34.000  
G10  23785715.256     -118325.1142        187.629          36.000  
G 8  25448232.052     -624782.3923       1899.568          31.000  
G 6  21837774.655      360930.0502       -986.719          41.000  
G13  20508785.668     -148255.3142       1424.614          44.000  
G11  25803669.080     -477397.7593       1760.368          32.000  
G19  21914616.130     -750771.0082       2226.251          42.000  
G23  20021097.348      250581.7472       -895.135          45.000  
> 2012  9 14 12 50 28.0000000  0 16                     
G32  25239274.559     1160390.4822      -3276.658          32.000  
G16  22153340.082       15867.6132      -3129.319          40.000  
S35  37896176.377       90155.5602       -261.605          42.000  
G20  23974158.622     1102435.2472      -3223.526          35.000  
S38  36842809.688      132608.6412       -257.365          43.000  
S33  36573857.701      106037.9972       -274.005          41.000  
G 7  22458750.041       -6057.1632       1579.992          41.000  
G 3  20832142.775      -94862.9872        283.366          43.000  
G30  24386334.353      264132.2162      -3581.598          34.000  
G10  23785643.047     -118701.3402        187.817          36.000  
G 8  25447510.031     -628584.0413       1900.168          32.000  
G 6  21838149.834      362903.3862       -987.042          41.000  
G13  20508242.827     -151105.0272       1423.767          44.000  
G11  25802998.032     -480920.2502       1762.395          31.000  
G19  21913768.084     -755224.8112       2226.510          42.000  
G23  20021439.023      252371.2792       -895.711          45.000  
> 2012  9 14 12 50 29.0000000  0 16                     
G32  25239898.055     1163664.5212      -3275.633          32.000  
G16  22153937.979       18996.3082      -3129.815          41.000  
S35  37896225.429       90416.6612       -260.087          42.000  
G20  23974771.142     1105657.8202      -3223.222          35.000  
S38  36842858.182      132864.9232       -256.402          43.000  
S33  36573910.139      106311.0932       -273.593          41.000  
G 7  22458448.938       -7638.0332       1580.744          41.000  
G 3  20832089.168      -95146.7312        283.329          43.000  
G30  24387016.168      267712.3863      -3580.800          34.000  
G10  23785606.785     -118888.6492        187.704          36.000  
G 8  25447149.388     -630484.9792       1899.777          32.000  
G 6  21838337.267      363890.9592       -987.939          41.000  
G13  20507971.842     -152529.2232       1423.461          44.000  
G11  25802662.953     -482682.0552       1759.552          32.000  
G19  21913345.178     -757451.1402       2226.263          42.000  
G23  20021608.762      253266.8972       -896.025          45.000  
> 2012  9 14 12 50 32.0000000  0 16                     
G32  25241766.363     1173483.5202      -3274.987          32.000  
G16  22155723.380       28381.5902      -3129.996          41.000  
S35  37896373.948       91197.6452       -260.914          42.000  
G20  23976610.028     1115323.267       -3223.643          35.000  
S38  36843003.578      133632.2702       -256.376          43.000  
S33  36574066.127      107128.6192       -272.926          41.000  
G 7  22457547.477      -12382.3362       1580.438          41.000  
G 3  20831926.793      -95995.729         281.084          43.000  
G30  24389060.164      278450.9143      -3580.052          34.000  
G10  23785499.484     -119449.099         184.984          36.000  
G 8  25446063.583     -636190.1042       1901.868          32.000  
G 6  21838901.782      366854.975        -989.304          41.000  
G13  20507158.086     -156801.338        1423.230          43.000  
G11  25801655.569     -487971.2833       1763.587          32.000  
G19  21912073.424     -764129.605        2225.282          42.000  
G23  20022118.779      255955.588        -897.875          44.000  
> 2012  9 14 12 50 34.0000000  0 16                     
G32  25243012.483     1180028.9842      -3271.321          32.000  
G16  22156915.649       34639.6792      -3130.264          41.000  
S35  37896473.135       91718.5672       -261.349          42.000  
G20  23977836.744     1121767.005       -3222.052          35.000  
S38  36843099.885      134144.2062       -256.398          43.000  
S33  36574169.816      107673.7982       -273.089          41.000  
G 7  22456945.427      -15544.7372       1580.392          41.000  
G 3  20831818.445      -96557.974         279.995          43.000  
G30  24390424.492      285610.1212      -3579.055          34.000  
G10  23785428.357     -119819.559         184.368          36.000  
G 8  25445337.566     -639993.4773       1901.799          32.000  
G 6  21839278.689      368834.745        -990.922          41.000  
G13  20506616.624     -159646.386        1421.318          43.000  
G11  25800983.684     -491498.7512       1766.671          32.000  
G19  21911226.757     -768579.540        2224.368          42.000  
G23  20022459.704      257751.418        -899.154          44.000  
> 2012  9 14 12 50 35.0000000  0 16                     
G32  25243634.932     1183300.7232      -3274.047          32.000  
G16  22157511.783       37768.2972      -3129.936          41.000  
S35  37896522.694       91978.3312       -260.748          42.000  
G20  23978450.014     1124988.1233      -3222.294          35.000  
S38  36843149.095      134399.2262       -255.163          43.000  
S33  36574221.189      107945.8452       -272.956          41.000  
G 7  22456643.521      -17126.5692       1581.573          41.000  
G 3  20831766.077      -96838.762         279.367          43.000  
G30  24391106.237      289188.9882      -3580.171          35.000  
G10  23785393.003     -120004.6183        183.211          36.000  
G 8  25444976.225     -641895.9463       1901.590          33.000  
G 6  21839466.191      369824.885        -991.847          41.000  
G13  20506345.744     -161068.890        1421.203          43.000  
G11  25800648.011     -493263.6803       1763.276          31.000  
G19  21910802.559     -770804.594        2223.433          42.000  
G23  20022631.257      258649.577        -899.663          44.000  
> 2012  9 14 12 50 40.0000000  0 16                     
G32  25246748.086     1199660.7482      -3271.799          32.000  
G16  22160491.111       53417.9122      -3130.462          42.000  
S35  37896769.771       93279.1972       -261.140          42.000  
G20  23981515.372     1141096.7412      -3222.477          35.000  
S38  36843392.944      135678.6892       -256.904          43.000  
S33  36574480.848      109310.6482       -273.686          41.000  
G 7  22455137.898      -25031.6182       1580.313          41.000  
G 3  20831501.532      -98228.595         275.513          43.000  
G30  24394514.788      307086.5842      -3580.310          35.000  
G10  23785219.251     -120917.7802        180.326          36.000  
G 8  25443166.585     -651405.4112       1899.987          33.000  
G 6  21840409.271      374788.724        -995.120          41.000  
G13  20504994.922     -168170.475        1419.077          44.000  
G11  25798968.934     -502089.3653       1764.996          32.000  
G19  21908687.349     -781919.966        2220.805          42.000  
G23  20023487.854      263153.289        -902.726          44.000  
> 2012  9 14 12 50 43.0000000  0 16                     
G32  25248614.840     1209473.3503      -3271.015          32.000  
G16  22162277.752       62808.594       -3130.616          42.000  
S35  37896917.854       94058.5532       -260.453          42.000  
G20  23983354.014     1150760.142       -3221.092          35.000  
S38  36843538.462      136445.7022       -256.258          43.000  
S33  36574635.998      110128.0212       -272.491          41.000  
G 7  22454234.815      -29775.5442       1580.606          41.000  
G 3  20831345.405      -99055.501         274.339          44.000  
G30  24396557.842      317823.6042      -3578.920          35.000  
G10  23785116.556     -121460.1482        178.632          36.000  
G 8  25442077.220     -657113.0412       1901.647          32.000  
G 6  21840977.502      377773.234        -996.287          41.000  
G13  20504185.389     -172427.004        1417.692          44.000  
G11  25797960.381     -507389.9682       1766.681          32.000  
G19  21907419.276     -788585.535        2220.470          42.000  
G23  20024002.932      265861.616        -904.068          44.000  
> 2012  9 14 12 50 45.0000000  0 16                     
G32  25249860.053     1216014.1172      -3269.375          32.000  
G16  22163470.265       69069.864       -3129.534          42.000  
S35  37897017.006       94578.3232       -258.886          42.000  
G20  23984580.764     1157202.162       -3218.399          35.000  
S38  36843635.921      136957.1442       -254.648          43.000  
S33  36574739.862      110672.6112       -271.406          41.000  
G 7  22453633.184      -32938.0722       1581.724          41.000  
G 3  20831241.087      -99603.397         274.210          44.000  
G30  24397919.133      324981.3462      -3576.581          35.000  
G10  23785049.495     -121818.9502        180.148          36.000  
G 8  25441352.443     -660918.4603       1904.962          32.000  
G 6  21841354.340      379765.931        -995.689          40.000  
G13  20503645.078     -175262.364        1418.341          44.000  
G11  25797285.930     -510925.3432       1769.564          31.000  
G19  21906574.930     -793027.244        2221.186          42.000  
G23  20024347.224      267670.168        -903.380          44.000  
> 2012  9 14 12 50 46.0000000  0 16                     
G32  25250482.485     1219283.9633      -3268.435          31.000  
G16  22164065.911       72200.454       -3131.600          42.000  
S35  37897066.739       94837.9272       -260.052          42.000  
G20  23985193.616     1160422.719       -3222.273          35.000  
S38  36843684.066      137212.4002       -255.916          43.000  
S33  36574791.567      110944.7022       -273.032          41.000  
G 7  22453332.865      -34519.5812       1580.530          41.000  
G 3  20831189.225      -99876.618         272.387          44.000  
G30  24398600.233      328559.8592      -3579.888          35.000  
G10  23785015.572     -121997.8092        176.504          36.000  
G 8  25440990.717     -662821.6923       1901.880          33.000  
G 6  21841543.622      380762.904        -998.270          40.000  
G13  20503375.263     -176679.644        1416.270          43.000  
G11  25796948.827     -512693.8733       1765.710          31.000  
G19  21906151.902     -795247.801        2219.625          42.000  
G23  20024518.952      268575.055        -905.929          44.000  
> 2012  9 14 12 50 47.0000000  0 16                     
G32  25251104.829     1222554.2142      -3272.137          32.000  
G16  22164661.469       75331.808       -3132.185          42.000  
S35  37897115.949       95098.1152       -260.823          42.000  
G20  23985806.834     1163643.867       -3220.689          35.000  
S38  36843731.897      137467.9872       -256.117          43.000  
S33  36574843.673      111217.3422       -273.256          41.000  
G 7  22453032.076      -36100.5192       1580.656          41.000  
G 3  20831137.415     -100148.595         270.706          43.000  
G30  24399281.193      332138.9242      -3579.699          35.000  
G10  23784982.469     -122175.5303        175.718          36.000  
G 8  25440628.800     -664724.2702       1902.968          33.000  
G 6  21841733.935      381761.096        -999.541          40.000  
G13  20503105.779     -178095.881        1415.556          43.000  
G11  25796612.003     -514462.0673       1768.044          32.000  
G19  21905729.799     -797467.387        2218.159          41.000  
G23  20024691.674      269481.116        -907.435          44.000  
> 2012  9 14 12 50 52.0000000  0 15                     
G16  22167638.511       90992.045       -3133.176          41.000  
S35  37897363.009       96400.2692       -261.538          42.000  
G20  23988869.906     1179749.5122      -3223.421          35.000  
S38  36843975.049      138746.6772       -257.182          43.000  
S33  36575102.879      112580.9692       -272.688          41.000  
G 7  22451528.844      -44004.033        1580.006          41.000  
G 3  20830876.971     -101497.443         267.197          43.000  
G30  24402687.074      350034.069       -3580.237          34.000  
G10  23784812.417     -123054.9512        173.515          35.000  
G 8  25438821.690     -674237.6012       1901.443          34.000  
G 6  21842687.362      386762.029       -1002.641          41.000  
G13  20501759.198     -185169.248        1412.823          43.000  
G11  25794927.934     -523307.5183       1766.603          29.000  
G19  21903620.294     -808558.463        2216.536          42.000  
G23  20025557.135      274021.407        -910.258          44.000  
> 2012  9 14 12 50 55.0000000  0 15                     
G16  22169425.780      100390.233       -3133.348          41.000  
S35  37897512.016       97181.2942       -261.448          42.000  
G20  23990708.321     1189412.2792      -3224.219          35.000  
S38  36844120.950      139513.7472       -257.074          43.000  
S33  36575257.715      113398.4652       -273.748          41.000  
G 7  22450625.115      -48745.860        1579.583          41.000  
G 3  20830724.753     -102298.567         265.001          43.000  
G30  24404727.249      360771.4822      -3579.360          34.000  
G10  23784712.689     -123575.914         171.398          35.000  
G 8  25437736.129     -679946.3922       1902.686          33.000  
G 6  21843261.544      389770.024       -1004.976          41.000  
G13  20500952.475     -189407.598        1411.317          44.000  
G11  25793915.089     -528618.7253       1770.126          29.000  
G19  21902357.753     -815208.2312       2215.001          42.000  
G23  20026076.175      276752.862        -912.585          44.000  
> 2012  9 14 12 50 56.0000000  0 16                     
G32  25256702.336     1251980.1002      -3269.165          31.000  
G16  22170022.141      103523.878       -3134.718          41.000  
S35  37897561.348       97442.0732       -261.074          42.000  
G20  23991321.225     1192633.7082      -3222.091          35.000  
S38  36844169.845      139769.9542       -256.503          43.000  
S33  36575309.542      113671.8292       -273.055          41.000  
G 7  22450323.889      -50325.839        1579.489          41.000  
G 3  20830674.548     -102563.667         264.108          43.000  
G30  24405407.336      364350.9462      -3580.080          34.000  
G10  23784679.795     -123747.845         172.034          35.000  
G 8  25437373.200     -681848.8682       1900.424          33.000  
G 6  21843452.223      390774.506       -1004.935          41.000  
G13  20500684.160     -190818.853        1410.312          44.000  
G11  25793578.003     -530389.2193       1772.580          29.000  
G19  21901936.523     -817423.4312       2215.011          42.000  
G23  20026250.031      277665.154        -912.903          44.000  
> 2012  9 14 12 50 57.0000000  0 16                     
G32  25257324.471     1255248.9193      -3269.912          31.000  
G16  22170618.485      106657.406       -3133.870          42.000  
S35  37897610.942       97702.4712       -260.613          42.000  
G20  23991934.426     1195854.7592      -3221.609          35.000  
S38  36844219.160      140025.8852       -255.992          43.000  
S33  36575362.050      113944.7982       -273.865          41.000  
G 7  22450022.210      -51906.085        1579.508          41.000  
G 3  20830625.112     -102828.401         264.090          43.000  
G30  24406087.790      367930.1172      -3577.839          34.000  
G10  23784648.001     -123919.566         170.109          36.000  
G 8  25437010.270     -683751.7373       1903.847          32.000  
G 6  21843642.273      391779.274       -1005.803          41.000  
G13  20500415.392     -192229.945        1410.515          44.000  
G11  25793240.516     -532160.4163       1770.018          29.000  
G19  21901514.664     -819638.5452       2214.757          42.000  
G23  20026423.556      278577.733        -913.573          44.000  
> 2012  9 14 12 50 58.0000000  0 16                     
G32  25257946.117     1258517.2433      -3267.942          31.000  
G16  22171215.457      109790.725       -3134.188          41.000  
S35  37897660.116       97962.4092       -260.624          42.000  
G20  23992547.871     1199075.3682      -3221.427          35.000  
S38  36844267.287      140281.6762       -256.317          43.000  
S33  36575413.528      114217.4242       -272.765          41.000  
G 7  22449720.862      -53486.696        1579.875          41.000  
G 3  20830574.018     -103092.819         263.464          43.000  
G30  24406768.383      371508.8373      -3579.548          33.000  
G10  23784615.945     -124091.064         170.717          36.000  
G 8  25436646.224     -685655.0362       1902.141          32.000  
G 6  21843833.248      392784.303       -1006.534          41.000  
G13  20500146.973     -193640.929        1410.425          44.000  
G11  25792902.837     -533932.1213       1771.620          30.000  
G19  21901093.084     -821853.6132       2214.724          42.000  
G23  20026597.290      279490.560        -914.096          44.000  
> 2012  9 14 12 50 59.0000000  0 16                     
G32  25258567.205     1261785.7233      -3272.201          31.000  
G16  22171812.603      112924.666       -3134.369          42.000  
S35  37897709.658       98222.8052       -261.033          42.000  
G20  23993160.914     1202296.4092      -3221.168          35.000  
S38  36844316.218      140538.0592       -257.143          43.000  
S33  36575465.180      114490.6272       -273.834          41.000  
G 7  22449419.445      -55066.844        1579.438          41.000  
G 3  20830523.185     -103356.093         262.725          43.000  
G30  24407448.575      375087.9592      -3581.125          33.000  
G10  23784584.220     -124261.555         170.084          36.000  
G 8  25436282.875     -687557.9433       1902.734          32.000  
G 6  21844024.520      393790.385       -1006.893          41.000  
G13  20499879.740     -195051.009        1409.169          44.000  
G11  25792565.838     -535703.7923       1771.992          31.000  
G19  21900673.214     -824067.8212       2213.747          42.000  
G23  20026770.833      280404.433        -914.311          44.000  
> 2012  9 14 12 51  8.0000000  0 15                     
G16  22177178.615      141139.565       -3136.484          41.000  
S35  37898155.563      100567.2772       -261.227          42.000  
G20  23998675.672     1231284.8062      -3221.982          34.000  
S38  36844753.712      142844.8422       -256.923          43.000  
S33  36575932.183      116950.2322       -273.964          41.000  
G 7  22446712.078      -69285.341        1579.124          41.000  
G 3  20830078.798     -105693.327         256.073          43.000  
G30  24413573.794      407300.2563      -3578.851          34.000  
G10  23784295.087     -125769.182         164.865          36.000  
G 8  25433021.203     -704685.9073       1902.849          33.000  
G 6  21845753.243      402874.594       -1013.362          41.000  
G13  20497469.062     -207718.781        1404.441          44.000  
G11  25789531.490     -551662.0252       1775.081          31.000  
G19  21896880.060     -843975.922        2209.327          42.000  
G23  20028341.195      288658.297        -921.092          44.000  
> 2012  9 14 12 51  9.0000000  0 15                     
G16  22177775.290      144276.000       -3136.868          41.000  
S35  37898205.104      100828.4102       -261.211          42.000  
G20  23999288.785     1234506.0302      -3222.146          34.000  
S38  36844802.904      143101.6582       -257.540          43.000  
S33  36575984.150      117224.0352       -274.291          41.000  
G 7  22446411.620      -70864.476        1578.514          41.000  
G 3  20830030.915     -105949.010         255.448          43.000  
G30  24414255.486      410879.8273      -3580.321          34.000  
G10  23784263.572     -125933.2743        164.655          36.000  
G 8  25432659.041     -706588.7032       1901.514          33.000  
G 6  21845946.277      403887.629       -1013.961          41.000  
G13  20497202.057     -209123.355        1404.013          44.000  
G11  25789194.142     -553436.2552       1774.554          31.000  
G19  21896459.754     -846185.304        2208.682          42.000  
G23  20028516.535      289579.038        -921.311          44.000  
> 2012  9 14 12 51 10.0000000  0 15                     
G16  22178371.948      147412.179       -3136.813          41.000  
S35  37898254.872      101089.2272       -261.135          42.000  
G20  23999901.340     1237726.7872      -3221.899          34.000  
S38  36844851.172      143357.9892       -256.879          43.000  
S33  36576036.535      117497.4442       -274.196          41.000  
G 7  22446111.163      -72444.021        1579.195          41.000  
G 3  20829981.147     -106204.469         254.150          43.000  
G30  24414937.284      414458.9252      -3580.664          34.000  
G10  23784232.546     -126097.3002        162.565          36.000  
G 8  25432296.425     -708492.0222       1903.304          33.000  
G 6  21846139.190      404900.842       -1014.047          41.000  
G13  20496934.231     -210527.896        1403.794          44.000  
G11  25788856.096     -555211.3573       1772.805          31.000  
G19  21896039.483     -848394.720        2207.972          42.000  
G23  20028691.753      290499.924        -921.934          44.000  
> 2012  9 14 12 51 11.0000000  0 15                     
G16  22178968.170      150548.451       -3137.165          41.000  
S35  37898304.117      101350.0142       -261.739          42.000  
G20  24000514.610     1240947.4372      -3219.828          34.000  
S38  36844900.486      143614.2102       -257.347          43.000  
S33  36576088.066      117770.7772       -273.976          41.000  
G 7  22445810.932      -74023.602        1578.994          41.000  
G 3  20829932.932     -106459.289         253.856          43.000  
G30  24415618.697      418037.9212      -3579.297          34.000  
G10  23784201.293     -126260.8152        161.864          36.000  
G 8  25431935.468     -710395.4612       1904.461          33.000  
G 6  21846332.346      405914.588       -1014.393          41.000  
G13  20496665.986     -211932.046        1403.463          43.000  
G11  25788518.731     -556986.6463       1777.841          31.000  
G19  21895618.497     -850603.797        2208.607          42.000  
G23  20028866.988      291421.356        -922.307          44.000  
> 2012  9 14 12 51 14.0000000  0 15                     
G16  22180758.806      159960.4023      -3138.224          41.000  
S35  37898453.281      102134.2333       -262.145          42.000  
G20  24002353.061     1250611.1513      -3221.293          34.000  
S38  36845046.806      144384.2413       -257.617          43.000  
S33  36576244.525      118592.1373       -273.607          41.000  
G 7  22444909.750      -78760.1413       1578.316          41.000  
G 3  20829787.955     -107217.5733        251.511          43.000  
G30  24417661.402      428776.7043      -3581.192          34.000  
G10  23784109.190     -126745.8573        161.113          36.000  
G 8  25430849.733     -716104.0313       1903.536          33.000  
G 6  21846910.891      408962.2023      -1017.005          41.000  
G13  20495863.677     -216139.0443       1400.896          43.000  
G11  25787504.891     -562312.7623       1774.487          30.000  
G19  21894358.015     -857226.4933       2206.462          42.000  
G23  20029394.909      294191.3843       -925.014          45.000  
> 2012  9 14 12 51 15.0000000  0 15                     
G16  22181356.703      163097.9462      -3138.361          41.000  
S35  37898502.892      102395.4632       -262.347          42.000  
G20  24002965.773     1253832.1282      -3223.022          34.000  
S38  36845095.213      144640.6902       -257.989          43.000  
S33  36576296.928      118865.8622       -274.744          41.000  
G 7  22444609.275      -80339.0472       1578.019          41.000  
G 3  20829739.304     -107469.0792        250.288          43.000  
G30  24418343.339      432356.1792      -3580.386          34.000  
G10  23784078.478     -126906.5782        159.109          36.000  
G 8  25430487.780     -718007.2032       1902.209          33.000  
G 6  21847103.279      409978.9832      -1018.405          41.000  
G13  20495596.706     -217540.7042       1400.406          43.000  
G11  25787166.706     -564088.8503       1777.130          31.000  
G19  21893936.889     -859433.3592       2205.948          42.000  
G23  20029572.430      295115.8272       -925.592          45.000  
> 2012  9 14 12 51 19.0000000  0 15                     
G16  22183746.057      175650.2612      -3136.494          41.000  
S35  37898701.563      103440.3142       -260.164          42.000  
G20  24005418.837     1266716.0952      -3219.924          34.000  
S38  36845290.638      145667.7362       -255.079          43.000  
S33  36576504.952      119961.0892       -272.579          41.000  
G 7  22443406.396      -86654.0012       1579.913          41.000  
G 3  20829549.568     -108467.8782        249.256          43.000  
G30  24421067.371      446673.8822      -3577.401          34.000  
G10  23783958.630     -127543.2912        159.164          36.000  
G 8  25429036.690     -725619.8983       1903.324          33.000  
G 6  21847875.643      414052.8202      -1018.040          40.000  
G13  20494531.580     -223142.2362       1400.347          43.000  
G11  25785813.651     -571196.2983       1778.669          31.000  
G19  21892257.567     -868256.3202       2206.431          42.000  
G23  20030278.414      298820.0992       -926.091          45.000  
> 2012  9 14 12 51 22.0000000  0 16                     
G32  25272863.628     1336924.6633      -3263.003          30.000  
G16  22185537.095      185065.6492      -3139.132          41.000  
S35  37898850.605      104223.5222       -261.797          42.000  
G20  24007257.497     1276377.7852      -3222.556          35.000  
S38  36845437.115      146437.1922       -257.016          43.000  
S33  36576661.846      120782.4182       -273.858          41.000  
G 7  22442505.581      -91390.6192       1578.702          41.000  
G 3  20829406.598     -109210.4802        245.451          43.000  
G30  24423111.699      457411.1552      -3579.903          35.000  
G10  23783868.831     -128015.5932        156.305          36.000  
G 8  25427949.838     -731330.7972       1902.511          33.000  
G 6  21848457.573      417114.0062      -1021.488          40.000  
G13  20493733.965     -227339.0672       1397.820          44.000  
G11  25784798.990     -576530.9253       1776.157          31.000  
G19  21891002.129     -874869.9472       2202.903          42.000  
G23  20030805.585      301604.0272       -929.340          45.000  
> 2012  9 14 12 51 23.0000000  0 16                     
G32  25273485.013     1340189.1823      -3267.459          30.000  
G16  22186133.910      188204.1832      -3138.941          41.000  
S35  37898900.129      104484.2352       -261.144          42.000  
G20  24007870.122     1279597.9352      -3222.281          35.000  
S38  36845485.592      146693.4762       -257.178          43.000  
S33  36576713.517      121055.8042       -273.404          41.000  
G 7  22442204.478      -92969.7302       1578.206          41.000  
G 3  20829359.657     -109456.9072        245.197          43.000  
G30  24423793.287      460989.8862      -3578.852          35.000  
G10  23783838.712     -128172.2172        154.462          36.000  
G 8  25427587.135     -733234.8543       1901.345          33.000  
G 6  21848652.387      418135.3742      -1022.123          40.000  
G13  20493467.396     -228737.3282       1397.674          44.000  
G11  25784460.543     -578310.1182       1774.948          31.000  
G19  21890582.887     -877073.9492       2203.248          42.000  
G23  20030982.268      302532.9542       -929.878          45.000  
> 2012  9 14 12 51 26.0000000  0 16                     
G32  25275348.644     1349983.1753      -3264.216          30.000  
G16  22187925.401      197621.961       -3140.484          41.000  
S35  37899048.281      105267.0092       -261.802          42.000  
G20  24009708.083     1289259.362       -3221.499          35.000  
S38  36845632.715      147463.3482       -257.179          43.000  
S33  36576869.382      121876.7552       -274.381          41.000  
G 7  22441302.040      -97705.695        1577.369          41.000  
G 3  20829218.310     -110190.969         242.751          43.000  
G30  24425838.173      471727.0482      -3579.308          35.000  
G10  23783750.309     -128637.424         153.416          36.000  
G 8  25426499.481     -738946.1242       1901.948          33.000  
G 6  21849237.284      421203.851       -1024.328          41.000  
G13  20492670.933     -232928.632        1395.789          44.000  
G11  25783445.046     -583648.3843       1779.763          32.000  
G19  21889327.746     -883682.327        2201.480          42.000  
G23  20031512.528      305324.543        -932.186          44.000  
> 2012  9 14 12 51 27.0000000  0 16                     
G32  25275969.836     1353247.1733      -3265.532          30.000  
G16  22188521.710      200761.347       -3140.424          41.000  
S35  37899097.945      105527.5242       -260.882          41.000  
G20  24010320.272     1292479.477       -3223.011          35.000  
S38  36845680.860      147719.7032       -257.797          43.000  
S33  36576921.750      122150.2552       -274.236          41.000  
G 7  22441001.617      -99284.532        1577.865          41.000  
G 3  20829171.980     -110434.5213        242.412          43.000  
G30  24426520.197      475305.8193      -3579.832          35.000  
G10  23783720.853     -128791.612         152.607          36.000  
G 8  25426136.202     -740850.2103       1904.459          33.000  
G 6  21849431.557      422227.840       -1025.036          41.000  
G13  20492404.643     -234324.848        1395.431          44.000  
G11  25783106.476     -585428.6623       1779.647          32.000  
G19  21888908.312     -885884.528        2201.171          43.000  
G23  20031689.037      306256.064        -932.849          44.000  
> 2012  9 14 12 51 32.0000000  0 15                     
G16  22191509.310      216462.5962      -3138.492          41.000  
S35  37899346.506      106832.5202       -260.083          42.000  
G20  24013383.186     1308581.1462      -3219.189          35.000  
S38  36845924.255      149003.1752       -255.162          43.000  
S33  36577181.200      123519.8012       -272.871          41.000  
G 7  22439500.078     -107176.552        1579.276          41.000  
G 3  20828944.202     -111640.1462        241.180          43.000  
G30  24429927.998      493200.8392      -3576.575          35.000  
G10  23783577.918     -129552.3052        152.311          36.000  
G 8  25424323.805     -750370.0203       1905.854          34.000  
G 6  21850409.537      427359.3802      -1026.691          41.000  
G13  20491077.798     -241296.969        1394.370          43.000  
G11  25781412.636     -594333.2402       1782.513          32.000  
G19  21886813.693     -896887.598        2200.436          43.000  
G23  20032578.353      310924.606        -933.797          44.000  
> 2012  9 14 12 51 34.0000000  0 15                     
G16  22192704.615      222744.5262      -3139.236          41.000  
S35  37899446.111      107355.0712       -259.736          42.000  
G20  24014608.733     1315021.6562      -3219.493          35.000  
S38  36846022.046      149516.8032       -255.174          43.000  
S33  36577285.116      124067.6622       -272.682          41.000  
G 7  22438900.924     -110332.962        1578.934          41.000  
G 3  20828854.194     -112117.3902        239.295          44.000  
G30  24431291.645      500358.8482      -3577.250          35.000  
G10  23783520.490     -129852.4372        150.860          36.000  
G 8  25423599.237     -754178.1552       1905.585          34.000  
G 6  21850800.003      429416.3392      -1027.987          40.000  
G13  20490547.765     -244082.251        1393.435          43.000  
G11  25780734.364     -597897.1652       1784.497          32.000  
G19  21885976.152     -901285.724        2200.391          43.000  
G23  20032933.831      312796.494        -936.055          44.000  
> 2012  9 14 12 51 35.0000000  0 15                     
G16  22193301.150      225885.7332      -3141.585          41.000  
S35  37899495.426      107616.2222       -260.730          42.000  
G20  24015221.619     1318241.7752      -3220.538          35.000  
S38  36846071.169      149773.6322       -257.349          43.000  
S33  36577337.711      124341.4852       -275.137          41.000  
G 7  22438600.432     -111911.146        1577.784          41.000  
G 3  20828809.120     -112354.9962        237.117          44.000  
G30  24431972.989      503937.7872      -3578.586          35.000  
G10  23783491.714     -130001.6282        149.388          36.000  
G 8  25423236.342     -756082.2812       1903.906          34.000  
G 6  21850994.556      430445.7332      -1030.312          40.000  
G13  20490283.743     -245474.182        1391.512          43.000  
G11  25780395.254     -599679.5912       1780.426          31.000  
G19  21885558.150     -903484.186        2197.737          43.000  
G23  20033111.701      313733.356        -937.119          44.000  
> 2012  9 14 12 51 38.0000000  0 15                     
G16  22195094.754      235309.689       -3142.531          41.000  
S35  37899644.625      108399.1232       -262.155          42.000  
G20  24017060.488     1327901.2673      -3220.351          35.000  
S38  36846217.297      150543.2492       -257.256          43.000  
S33  36577493.192      125162.2562       -274.063          41.000  
G 7  22437697.697     -116646.245        1577.190          41.000  
G 3  20828674.404     -113064.381         234.283          44.000  
G30  24434017.474      514673.133       -3579.111          36.000  
G10  23783404.708     -130446.654         146.203          36.000  
G 8  25422148.967     -761795.9122       1904.381          34.000  
G 6  21851580.482      433536.451       -1032.474          40.000  
G13  20489488.659     -249647.868        1389.930          44.000  
G11  25779376.475     -605029.5882       1781.466          31.000  
G19  21884302.938     -910077.783        2196.884          43.000  
G23  20033646.411      316546.888        -939.650          44.000  
> 2012  9 14 12 51 40.0000000  0 15                     
G16  22196291.455      241593.312       -3142.311          41.000  
S35  37899743.254      108921.2462       -261.277          42.000  
G20  24018286.279     1334340.6622      -3221.462          35.000  
S38  36846315.070      151056.3152       -256.461          43.000  
S33  36577597.440      125709.5092       -275.532          41.000  
G 7  22437095.525     -119802.727        1577.331          41.000  
G 3  20828583.943     -113533.771         233.381          44.000  
G30  24435379.429      521830.8253      -3580.032          35.000  
G10  23783349.006     -130740.406         146.233          36.000  
G 8  25421423.840     -765605.1692       1904.362          33.000  
G 6  21851973.059      435600.414       -1033.432          40.000  
G13  20488958.713     -252427.843        1388.970          43.000  
G11  25778697.086     -608597.7363       1785.881          30.000  
G19  21883465.624     -914471.346        2195.787          43.000  
G23  20034004.559      318425.727        -940.417          44.000  
> 2012  9 14 12 51 43.0000000  0 16                     
G32  25285903.547     1405453.0782      -3261.587          31.000  
G16  22198085.267      251021.030       -3143.772          41.000  
S35  37899892.261      109705.2992       -262.337          42.000  
G20  24020124.293     1344000.5212      -3220.212          35.000  
S38  36846460.919      151826.4942       -256.722          43.000  
S33  36577753.776      126531.1032       -274.449          41.000  
G 7  22436194.291     -124536.207        1577.456          40.000  
G 3  20828451.111     -114231.669         231.174          44.000  
G30  24437422.221      532567.3352      -3580.514          34.000  
G10  23783267.828     -131175.796         143.334          36.000  
G 8  25420336.884     -771318.5262       1903.743          33.000  
G 6  21852565.477      438702.097       -1034.925          40.000  
G13  20488167.538     -256593.203        1387.015          43.000  
G11  25777678.010     -613951.3663       1786.264          30.000  
G19  21882211.861     -921057.570        2194.758          43.000  
G23  20034542.514      321249.609        -942.638          44.000  
> 2012  9 14 12 51 46.0000000  0 16                     
G32  25287765.939     1415237.5872      -3262.009          32.000  
G16  22199881.889      260450.743       -3144.532          41.000  
S35  37900041.862      110489.5872       -262.229          42.000  
G20  24021961.137     1353660.2802      -3221.339          34.000  
S38  36846607.815      152596.9632       -258.092          43.000  
S33  36577910.078      127353.6782       -275.431          41.000  
G 7  22435293.563     -129269.037        1576.993          40.000  
G 3  20828319.519     -114922.967         228.126          44.000  
G30  24439463.129      543304.0022      -3578.276          34.000  
G10  23783184.573     -131605.673         140.823          36.000  
G 8  25419250.869     -777032.0362       1903.345          33.000  
G 6  21853157.231      441809.748       -1037.938          40.000  
G13  20487376.258     -260753.792        1385.122          44.000  
G11  25776657.591     -619307.5333       1783.703          30.000  
G19  21880960.000     -927639.631        2192.178          43.000  
G23  20035080.312      324079.417        -945.193          44.000  
> 2012  9 14 12 51 47.0000000  0 16                     
G32  25288386.993     1418499.1222      -3262.301          32.000  
G16  22200480.432      263594.740       -3144.629          42.000  
S35  37900091.002      110751.2752       -261.812          42.000  
G20  24022573.518     1356880.5102      -3221.498          34.000  
S38  36846656.624      152854.1032       -258.015          43.000  
S33  36577962.847      127628.2532       -274.947          41.000  
G 7  22434993.384     -130846.167        1577.187          40.000  
G 3  20828276.033     -115151.628         227.863          44.000  
G30  24440143.076      546883.1552      -3580.215          34.000  
G10  23783157.351     -131747.439         140.737          36.000  
G 8  25418888.394     -778936.2622       1903.246          33.000  
G 6  21853355.029      442847.279       -1038.687          40.000  
G13  20487112.637     -262139.291        1384.748          44.000  
G11  25776317.225     -621093.0833       1784.190          30.000  
G19  21880542.503     -929832.429        2191.568          43.000  
G23  20035259.334      325024.303        -945.901          44.000  
> 2012  9 14 12 51 50.0000000  0 16                     
G32  25290248.146     1428281.4823      -3259.975          31.000  
G16  22202274.681      273026.582       -3144.458          41.000  
S35  37900240.393      111534.7312       -260.920          42.000  
G20  24024411.043     1366539.7462      -3219.847          34.000  
S38  36846802.996      153624.1752       -256.231          43.000  
S33  36578117.945      128451.0152       -272.945          41.000  
G 7  22434092.063     -135578.560        1577.646          40.000  
G 3  20828146.221     -115834.581         226.768          44.000  
G30  24442181.925      557618.972       -3578.840          33.000  
G10  23783074.759     -132170.455         140.473          36.000  
G 8  25417801.385     -784650.924        1905.426          34.000  
G 6  21853946.225      445962.458       -1039.069          40.000  
G13  20486320.956     -266294.054        1384.241          44.000  
G11  25775296.387     -626453.0683       1788.738          29.000  
G19  21879289.490     -936409.440        2192.078          43.000  
G23  20035801.181      327861.523        -946.805          44.000  
> 2012  9 14 12 51 52.0000000  0 16                     
G32  25291489.257     1434802.5253      -3259.387          32.000  
G16  22203471.102      279315.713       -3144.839          41.000  
S35  37900339.074      112057.4582       -261.610          41.000  
G20  24025636.188     1372979.2283      -3220.398          34.000  
S38  36846901.049      154138.3462       -257.329          43.000  
S33  36578222.489      128999.3672       -274.833          41.000  
G 7  22433491.950     -138733.006        1576.141          40.000  
G 3  20828059.040     -116286.119         224.974          44.000  
G30  24443542.187      564777.1633      -3577.326          33.000  
G10  23783022.862     -132449.320         139.719          36.000  
G 8  25417074.810     -788459.8733       1904.741          33.000  
G 6  21854340.687      448042.712       -1040.978          40.000  
G13  20485794.587     -269061.153        1383.032          44.000  
G11  25774615.829     -630027.7103       1786.907          29.000  
G19  21878456.818     -940791.704        2190.087          43.000  
G23  20036161.057      329756.393        -948.424          44.000  
> 2012  9 14 12 51 53.0000000  0 16                     
G32  25292109.630     1438062.3743      -3263.458          32.000  
G16  22204069.802      282460.174       -3145.746          41.000  
S35  37900389.051      112318.5792       -261.849          41.000  
G20  24026249.337     1376198.5892      -3221.386          34.000  
S38  36846949.473      154395.1052       -258.088          43.000  
S33  36578274.578      129273.2452       -275.583          41.000  
G 7  22433191.300     -140310.522        1576.931          40.000  
G 3  20828015.345     -116511.198         223.428          44.000  
G30  24444222.431      568355.6012      -3577.477          33.000  
G10  23782996.756     -132588.264         137.583          36.000  
G 8  25416710.990     -790364.9833       1906.077          33.000  
G 6  21854538.660      449083.413       -1042.157          40.000  
G13  20485530.601     -270444.331        1381.877          44.000  
G11  25774275.410     -631815.7703       1790.020          30.000  
G19  21878039.741     -942982.560        2189.153          43.000  
G23  20036341.736      330704.412        -949.329          44.000  
> 2012  9 14 12 51 57.0000000  0 16                     
G32  25294590.144     1451101.1963      -3256.722          32.000  
G16  22206463.379      295040.7893      -3145.731          41.000  
S35  37900587.460      113364.3023       -261.970          42.000  
G20  24028699.661     1389076.3992      -3219.495          34.000  
S38  36847145.212      155422.8643       -257.456          43.000  
S33  36578483.736      130370.4523       -275.279          41.000  
G 7  22431990.132     -146619.301        1576.609          40.000  
G 3  20827845.414     -117403.6013        220.560          44.000  
G30  24446945.171      582670.0423      -3580.009          33.000  
G10  23782893.940     -133137.3482        134.780          37.000  
G 8  25415257.562     -797985.1792       1905.189          33.000  
G 6  21855331.354      453253.9833      -1044.817          40.000  
G13  20484478.143     -275971.213        1379.756          44.000  
G11  25772913.159     -638970.3743       1793.641          30.000  
G19  21876372.477     -951740.793        2187.458          43.000  
G23  20037063.599      334503.617        -951.869          44.000  
> 2012  9 14 12 51 58.0000000  0 16                     
G32  25295210.446     1454360.0203      -3258.717          32.000  
G16  22207061.363      298185.9512      -3146.100          41.000  
S35  37900637.560      113625.2822       -262.395          42.000  
G20  24029312.618     1392295.3243      -3219.521          35.000  
S38  36847194.073      155679.4623       -258.002          43.000  
S33  36578536.070      130644.2663       -274.578          41.000  
G 7  22431689.692     -148196.8413       1576.874          40.000  
G 3  20827803.342     -117625.4092        220.113          44.000  
G30  24447625.974      586248.1562      -3578.307          33.000  
G10  23782869.300     -133273.6552        134.593          37.000  
G 8  25414893.568     -799890.8422       1904.265          33.000  
G 6  21855530.391      454297.6312      -1044.659          40.000  
G13  20484215.011     -277352.154        1379.712          44.000  
G11  25772572.618     -640760.3573       1788.715          30.000  
G19  21875955.783     -953929.720        2188.044          43.000  
G23  20037244.331      335454.526        -952.281          44.000  
> 2012  9 14 12 52  2.0000000  0 16                     
G32  25297692.129     1467394.6832      -3259.598          32.000  
G16  22209454.189      310769.5532      -3146.991          41.000  
S35  37900836.039      114670.2662       -261.545          42.000  
G20  24031762.715     1405171.6372      -3218.224          34.000  
S38  36847388.730      156706.8972       -257.714          43.000  
S33  36578743.361      131740.1282       -275.145          41.000  
G 7  22430488.140     -154505.4412       1576.239          40.000  
G 3  20827635.331     -118504.4272        217.287          44.000  
G30  24450348.662      600561.5412      -3580.196          33.000  
G10  23782768.176     -133811.8442        131.665          37.000  
G 8  25413441.116     -807512.7053       1905.915          33.000  
G 6  21856325.318      458479.6542      -1046.906          40.000  
G13  20483164.456     -282869.819        1377.432          44.000  
G11  25771209.441     -647921.8232       1788.615          30.000  
G19  21874293.074     -962680.014        2185.948          43.000  
G23  20037971.238      339265.574        -954.527          44.000  
> 2012  9 14 12 52  4.0000000  0 16                     
G32  25298931.950     1473911.8952      -3258.330          32.000  
G16  22210651.448      317063.3242      -3147.553          41.000  
S35  37900935.610      115194.1182       -262.772          42.000  
G20  24032986.813     1411610.4262      -3220.434          34.000  
S38  36847487.306      157221.4752       -257.815          43.000  
S33  36578848.429      132289.4532       -274.716          41.000  
G 7  22429887.224     -157658.6282       1576.011          40.000  
G 3  20827552.582     -118938.8792        215.531          44.000  
G30  24451711.646      607718.9362      -3579.727          34.000  
G10  23782716.750     -134076.6232        131.264          36.000  
G 8  25412715.641     -811323.0592       1904.950          33.000  
G 6  21856723.986      460575.3202      -1049.173          41.000  
G13  20482641.333     -285624.841        1375.885          43.000  
G11  25770527.103     -651503.5323       1790.747          30.000  
G19  21873462.706     -967051.733        2184.651          43.000  
G23  20038335.092      341175.694        -956.798          45.000  
> 2012  9 14 12 52  5.0000000  0 16                     
G32  25299551.258     1477170.3212      -3258.423          32.000  
G16  22211249.537      320210.6632      -3148.165          41.000  
S35  37900985.308      115456.1972       -262.662          42.000  
G20  24033599.647     1414829.9252      -3220.763          34.000  
S38  36847535.521      157478.8822       -257.492          43.000  
S33  36578900.692      132564.2502       -275.917          41.000  
G 7  22429586.871     -159234.9902       1575.634          40.000  
G 3  20827510.998     -119154.8802        214.817          44.000  
G30  24452392.169      611297.7902      -3580.355          34.000  
G10  23782690.523     -134207.9992        130.057          36.000  
G 8  25412353.357     -813228.2152       1905.480          33.000  
G 6  21856923.721      461624.2802      -1050.014          41.000  
G13  20482379.632     -287001.433        1376.240          43.000  
G11  25770186.265     -653294.6952       1786.814          30.000  
G19  21873047.792     -969236.773        2184.146          43.000  
G23  20038517.447      342131.879        -956.683          45.000  
> 2012  9 14 12 52  9.0000000  0 16                     
G32  25302030.864     1490201.6493      -3257.532          32.000  
G16  22213646.551      332800.793       -3148.131          41.000  
S35  37901183.944      116502.7292       -262.075          42.000  
G20  24036048.279     1427706.4633      -3219.404          34.000  
S38  36847731.330      158507.4082       -258.330          43.000  
S33  36579109.414      133662.4562       -274.346          41.000  
G 7  22428387.203     -165541.071        1576.217          40.000  
G 3  20827347.874     -120012.907         212.332          44.000  
G30  24455118.347      625611.8932      -3579.146          34.000  
G10  23782590.254     -134728.693         128.854          37.000  
G 8  25410905.547     -820850.0723       1904.030          33.000  
G 6  21857722.574      465824.926       -1051.775          41.000  
G13  20481331.886     -292503.924        1374.525          43.000  
G11  25768821.187     -660463.4633       1793.569          30.000  
G19  21871384.489     -977973.676        2182.896          43.000  
G23  20039245.138      345961.787        -958.956          44.000  
> 2012  9 14 12 52 10.0000000  0 16                     
G32  25302650.417     1493458.4273      -3257.719          32.000  
G16  22214244.989      335948.173       -3147.761          41.000  
S35  37901233.467      116763.6442       -261.350          42.000  
G20  24036660.398     1430924.8782      -3218.023          34.000  
S38  36847780.400      158763.8862       -257.202          43.000  
S33  36579161.817      133936.3982       -275.036          41.000  
G 7  22428087.234     -167118.091        1576.224          40.000  
G 3  20827307.320     -120226.266         211.998          43.000  
G30  24455799.324      629189.7322      -3579.125          34.000  
G10  23782565.719     -134858.062         126.918          37.000  
G 8  25410542.024     -822756.2773       1905.764          34.000  
G 6  21857921.995      466876.198       -1052.087          41.000  
G13  20481070.028     -293878.916        1373.711          43.000  
G11  25768479.809     -662257.0643       1793.932          30.000  
G19  21870967.935     -980157.427        2182.296          43.000  
G23  20039426.778      346920.220        -959.751          44.000  
> 2012  9 14 12 52 11.0000000  0 16                     
G32  25303269.742     1496715.1603      -3256.402          32.000  
G16  22214844.369      339095.817       -3148.644          41.000  
S35  37901283.043      117024.5172       -261.503          42.000  
G20  24037272.761     1434143.3303      -3220.104          34.000  
S38  36847828.720      159020.5462       -257.897          43.000  
S33  36579213.819      134210.2982       -274.431          41.000  
G 7  22427786.497     -168694.989        1576.548          40.000  
G 3  20827266.329     -120438.833         211.271          44.000  
G30  24456480.878      632767.6492      -3581.818          34.000  
G10  23782540.869     -134986.720         128.332          37.000  
G 8  25410179.112     -824662.4583       1904.600          33.000  
G 6  21858122.307      467928.157       -1053.674          41.000  
G13  20480808.851     -295253.343        1373.010          43.000  
G11  25768138.482     -664050.7883       1794.664          30.000  
G19  21870553.021     -982340.674        2182.074          44.000  
G23  20039608.068      347879.355        -960.297          44.000  
> 2012  9 14 12 52 13.0000000  0 16                     
G32  25304509.074     1503228.8383      -3256.000          32.000  
G16  22216042.170      345392.475       -3148.728          41.000  
S35  37901382.143      117547.0362       -261.015          42.000  
G20  24038498.011     1440580.8882      -3219.740          35.000  
S38  36847926.424      159534.9912       -257.028          43.000  
S33  36579317.682      134758.8222       -274.791          41.000  
G 7  22427185.389     -171847.885        1576.496          40.000  
G 3  20827186.320     -120861.078         210.348          44.000  
G30  24457843.426      639923.709       -3578.681          34.000  
G10  23782493.091     -135241.591         126.467          37.000  
G 8  25409454.509     -828474.2003       1903.930          33.000  
G 6  21858523.417      470034.809       -1053.737          41.000  
G13  20480287.421     -297999.897        1372.287          44.000  
G11  25767455.952     -667638.5863       1796.800          30.000  
G19  21869722.984     -986705.071        2181.222          43.000  
G23  20039974.139      349800.304        -961.264          44.000  
> 2012  9 14 12 52 15.0000000  0 16                     
G32  25305748.406     1509740.7922      -3256.678          32.000  
G16  22217240.598      351688.849       -3147.605          41.000  
S35  37901481.714      118068.8482       -259.684          41.000  
G20  24039723.819     1447017.2862      -3216.769          35.000  
S38  36848023.813      160048.4442       -256.424          43.000  
S33  36579422.279      135306.9292       -273.287          41.000  
G 7  22426585.294     -175001.620        1577.777          40.000  
G 3  20827106.066     -121281.540         210.194          44.000  
G30  24459205.886      647079.196       -3577.659          34.000  
G10  23782445.539     -135495.159         127.154          37.000  
G 8  25408728.929     -832287.1362       1906.882          33.000  
G 6  21858924.929      472142.954       -1054.323          41.000  
G13  20479766.759     -300745.475        1372.950          44.000  
G11  25766773.439     -671228.6263       1797.076          29.000  
G19  21868892.895     -991068.755        2182.366          43.000  
G23  20040339.703      351722.737        -960.964          44.000  
> 2012  9 14 12 52 20.0000000  0 16                     
G32  25308845.296     1526017.1113      -3255.759          32.000  
G16  22220238.266      367432.338       -3150.265          41.000  
S35  37901730.013      119373.5242       -261.773          42.000  
G20  24042787.414     1463106.8672      -3217.287          35.000  
S38  36848267.558      161331.3462       -257.308          43.000  
S33  36579681.607      136676.1622       -275.186          41.000  
G 7  22425087.350     -182885.846        1575.651          40.000  
G 3  20826908.250     -122321.021         205.637          44.000  
G30  24462611.069      664966.759       -3578.583          34.000  
G10  23782326.703     -136119.611         120.773          37.000  
G 8  25406913.217     -841820.8922       1908.564          33.000  
G 6  21859926.991      477423.759       -1058.569          40.000  
G13  20478460.401     -307601.373        1368.923          43.000  
G11  25765065.028     -680209.5853       1797.872          30.000  
G19  21866814.295    -1001971.038        2178.365          43.000  
G23  20041255.700      356539.174        -966.158          44.000  
> 2012  9 14 12 52 21.0000000  0  7                     
G 3  20826869.912     -122525.1673        203.105           6.000  
G30  24463291.174      668545.2783      -3578.477          21.000  
G 8  25406549.554     -843725.3443       1903.247          17.000  
G 6  21860127.773      478479.0963      -1052.471          15.000  
G13  20478201.544     -308967.3493       1364.652           7.000  
G11  25764723.562     -682006.4733       1796.813          18.000  
G23  20041443.203      357510.2003       -974.469           8.000  
> 2012  9 14 12 52 22.0000000  0  7                     
G 3  20826829.567     -122728.2603        203.105           7.000  
G30  24463971.820      672123.7623      -3578.477          18.000  
G 8  25406189.905     -845628.5803       1903.247          14.000  
G 6  21860327.578      479531.5793      -1052.471           9.000  
G13  20477941.414     -310331.9883       1364.652           7.000  
G11  25764380.299     -683803.2703       1796.813          16.000  
G23  20041628.541      358484.6823       -974.469           7.000  
> 2012  9 14 12 52 23.0000000  0  7                     
G 3  20826790.025     -122931.3573        203.105           6.000  
G30  24464653.774      675702.2553      -3578.477          15.000  
G 8  25405828.738     -847531.8173       1903.247          13.000  
G 6  21860527.871      480584.0593      -1052.471           8.000  
G13  20477681.946     -311697.2853       1368.999           8.000  
G11  25764035.343     -685600.0763       1796.813          12.000  
G23  20041815.346      359459.1613       -974.469           7.000  
> 2012  9 14 12 52 24.0000000  0  7                     
G 3  20826751.286     -123134.4503        203.105           6.000  
G30  24465333.931      679280.7473      -3578.477          14.000  
G 8  25405468.496     -849435.0533       1903.247          13.000  
G 6  21860726.158      481636.5453      -1052.471           8.000  
G13  20477422.043     -313066.2683       1368.999           9.000  
G11  25763694.976     -687396.8733       1796.813          10.000  
G23  20042000.249      360433.6433       -974.469           7.000  
> 2012  9 14 12 52 25.0000000  0  6                     
G 3  20826710.749     -123348.9963        216.329           6.000  
G30  24466013.129      682842.2863      -3558.687          13.000  
G 6  21860925.789      482671.8973      -1032.641           8.000  
G13  20477160.551     -314435.2573       1368.999           9.000  
G11  25763351.102     -689204.9223       1810.011           9.000  
G23  20042188.100      361421.5383       -989.906           7.000  
> 2012  9 14 12 52 26.0000000  0  6                     
G 3  20826673.039     -123565.9603        217.660           7.000  
G30  24466689.534      686400.0123      -3556.697           6.000  
G 6  21861125.210      483703.5993      -1030.651           8.000  
G13  20476898.885     -315804.2453       1368.999           9.000  
G11  25763006.321     -691015.5673       1811.341           7.000  
G23  20042376.353      362412.2133       -991.469           6.000  
> 2012  9 14 12 52 27.0000000  0  6                     
G 3  20826631.507     -123784.2403        218.990           7.000  
G30  24467366.864      689955.7463      -3554.707           6.000  
G 6  21861320.809      484733.3183      -1028.661           8.000  
G13  20476638.650     -317173.2333       1368.999           9.000  
G11  25762661.993     -692827.5383       1812.672           7.000  
G23  20042564.763      363404.4463       -993.031           6.000  
